$GNRMC,132840.00,A,1346.88722,N,10040.46293,E,0.206,,191118,,,A,V*15
$GNVTG,,T,,M,0.206,N,0.382,K,A*30
$GNGNS,132840.00,1346.88722,N,10040.46293,E,ANNA,09,0.90,2.7,-27.4,,,V*3F
$GNGGA,132840.00,1346.88722,N,10040.46293,E,1,09,0.90,2.7,M,-27.4,M,,*6F
$GNGSA,A,3,03,23,31,16,26,22,27,08,,,,,2.13,0.90,1.93,1*0D
$GNGSA,A,3,13,,,,,,,,,,,,2.13,0.90,1.93,4*04
$GPGSV,4,1,13,03,36,253,36,08,40,182,10,09,10,324,22,11,05,200,11,0*69
$GPGSV,4,2,13,14,29,131,22,16,52,002,16,18,07,189,,22,35,227,20,0*64
$GPGSV,4,3,13,23,35,327,35,26,30,026,27,27,59,139,32,31,20,067,21,0*60
$GPGSV,4,4,13,32,09,139,13,0*56
$GNGLL,1346.88722,N,10040.46293,E,132840.00,A,A*73
$GNGST,132840.00,54,,,,3.0,3.5,13*6D
$GNZDA,132840.00,19,11,2018,00,00*77
$GNTXT,01,01,02,u-blox AG - www.u-blox.com*4E
$GNTXT,01,01,02,HW UBX-M8030 00080000*60
$GNTXT,01,01,02,ROM CORE 3.01 (107888)*2B
$GNTXT,01,01,02,FWVER=SPG 3.01*46
$GNTXT,01,01,02,PROTVER=18.00*11
$GNTXT,01,01,02,GPS;GLO;GAL;BDS*77
$GNTXT,01,01,02,SBAS;IMES;QZSS*49
$GNTXT,01,01,02,GNSS OTP=GPS;GLO*37
$GNTXT,01,01,02,LLC=FFFFFFFF-FFFFFFFF-FFFFFFFF-FFFFFFFF-FFFFFFFD*2F
$GNTXT,01,01,02,ANTSUPERV=AC SD PDoS SR*3E
$GNTXT,01,01,02,ANTSTATUS=OK*25
$GNTXT,01,01,02,PF=3FF*4B
$GNRMC,132841.00,A,1346.88723,N,10040.46301,E,0.060,,191118,,,A,V*1D
$GNVTG,,T,,M,0.060,N,0.110,K,A*3B
$GNGNS,132841.00,1346.88723,N,10040.46301,E,ANNA,09,0.90,2.3,-27.4,,,V*31
$GNGGA,132841.00,1346.88723,N,10040.46301,E,1,09,0.90,2.3,M,-27.4,M,,*61
$GNGSA,A,3,03,23,31,16,26,22,27,08,,,,,2.13,0.90,1.93,1*0D
$GNGSA,A,3,13,,,,,,,,,,,,2.13,0.90,1.93,4*04
$GPGSV,4,1,13,03,36,253,36,08,40,182,12,09,10,324,21,11,05,200,12,0*6B
$GPGSV,4,2,13,14,29,131,21,16,52,002,17,18,07,189,,22,35,227,19,0*6C
$GPGSV,4,3,13,23,35,327,34,26,30,026,27,27,59,139,32,31,20,067,20,0*60
$GPGSV,4,4,13,32,09,139,13,0*56
$GNGLL,1346.88723,N,10040.46301,E,132841.00,A,A*79
$GNGST,132841.00,3965255,,,,3.0,3.5,13*56
$GNZDA,132841.00,19,11,2018,00,00*76
$GNRMC,132842.00,A,1346.88724,N,10040.46307,E,0.149,,191118,,,A,V*15
$GNVTG,,T,,M,0.149,N,0.276,K,A*32
$GNGNS,132842.00,1346.88724,N,10040.46307,E,ANNA,09,0.90,2.0,-27.4,,,V*30
$GNGGA,132842.00,1346.88724,N,10040.46307,E,1,09,0.90,2.0,M,-27.4,M,,*60
$GNGSA,A,3,03,23,31,16,26,22,27,08,,,,,2.13,0.90,1.93,1*0D
$GNGSA,A,3,13,,,,,,,,,,,,2.13,0.90,1.93,4*04
$GPGSV,4,1,13,03,36,253,36,08,40,182,07,09,10,324,21,11,05,200,14,0*69
$GPGSV,4,2,13,14,29,131,21,16,52,002,17,18,07,189,,22,35,227,19,0*6C
$GPGSV,4,3,13,23,35,327,34,26,30,026,27,27,59,139,32,31,20,067,21,0*61
$GPGSV,4,4,13,32,09,139,13,0*56
$GBGSV,1,1,04,05,,,31,09,89,293,,13,16,175,25,22,,,25,0*72
$GNGLL,1346.88724,N,10040.46307,E,132842.00,A,A*7B
$GNGST,132842.00,3965255,,,,3.0,3.5,13*55
$GNZDA,132842.00,19,11,2018,00,00*75
$GNRMC,132843.00,A,1346.88723,N,10040.46313,E,0.186,,191118,,,A,V*15
$GNVTG,,T,,M,0.186,N,0.345,K,A*30
$GNGNS,132843.00,1346.88723,N,10040.46313,E,ANNA,09,0.90,1.5,-27.4,,,V*35
$GNGGA,132843.00,1346.88723,N,10040.46313,E,1,09,0.90,1.5,M,-27.4,M,,*65
$GNGSA,A,3,03,23,31,16,26,22,27,08,,,,,2.13,0.90,1.93,1*0D
$GNGSA,A,3,13,,,,,,,,,,,,2.13,0.90,1.93,4*04
$GPGSV,4,1,13,03,36,253,36,08,40,182,09,09,10,324,20,11,05,200,15,0*67
$GPGSV,4,2,13,14,29,131,20,16,52,002,17,18,07,189,,22,35,227,18,0*6C
$GPGSV,4,3,13,23,35,327,35,26,30,026,27,27,59,139,31,31,20,067,20,0*62
$GPGSV,4,4,13,32,09,139,12,0*57
$GNGLL,1346.88723,N,10040.46313,E,132843.00,A,A*78
$GNGST,132843.00,59,,,,3.0,3.5,13*63
$GNZDA,132843.00,19,11,2018,00,00*74
$GNRMC,132844.00,A,1346.88725,N,10040.46317,E,0.126,,191118,,,A,V*1A
$GNVTG,,T,,M,0.126,N,0.234,K,A*3D
$GNGNS,132844.00,1346.88725,N,10040.46317,E,ANNA,09,0.90,1.2,-27.4,,,V*37
$GNGGA,132844.00,1346.88725,N,10040.46317,E,1,09,0.90,1.2,M,-27.4,M,,*67
$GNGSA,A,3,03,23,31,16,26,22,27,08,,,,,2.13,0.90,1.93,1*0D
$GNGSA,A,3,13,,,,,,,,,,,,2.13,0.90,1.93,4*04
$GPGSV,4,1,13,03,36,253,36,08,40,182,09,09,10,324,20,11,05,200,14,0*66
$GPGSV,4,2,13,14,29,131,21,16,52,002,17,18,07,189,,22,35,227,18,0*6D
$GPGSV,4,3,13,23,35,327,35,26,30,026,28,27,59,139,31,31,20,067,21,0*6C
$GPGSV,4,4,13,32,09,139,,0*54
$GBGSV,1,1,04,05,,,30,09,89,293,,13,16,175,26,22,,,23,0*76
$GNGLL,1346.88725,N,10040.46317,E,132844.00,A,A*7D
$GNGST,132844.00,3965255,,,,3.0,3.5,13*53
$GNZDA,132844.00,19,11,2018,00,00*73
$GNRMC,132845.00,A,1346.88727,N,10040.46318,E,0.048,,191118,,,A,V*1F
$GNVTG,,T,,M,0.048,N,0.090,K,A*38
$GNGNS,132845.00,1346.88727,N,10040.46318,E,ANNA,09,0.90,1.2,-27.4,,,V*3B
$GNGGA,132845.00,1346.88727,N,10040.46318,E,1,09,0.90,1.2,M,-27.4,M,,*6B
$GNGSA,A,3,03,23,31,16,26,22,27,08,,,,,2.13,0.90,1.93,1*0D
$GNGSA,A,3,13,,,,,,,,,,,,2.13,0.90,1.93,4*04
$GPGSV,4,1,13,03,36,253,35,08,40,182,13,09,10,324,21,11,05,200,14,0*6F
$GPGSV,4,2,13,14,29,131,21,16,52,002,17,18,07,189,,22,35,227,18,0*6D
$GPGSV,4,3,13,23,35,327,35,26,30,026,28,27,59,139,31,31,20,067,21,0*6C
$GPGSV,4,4,13,32,09,139,,0*54
$GBGSV,1,1,04,05,,,30,09,89,293,,13,16,175,26,22,,,22,0*77
$GNGLL,1346.88727,N,10040.46318,E,132845.00,A,A*71
$GNGST,132845.00,3965255,,,,3.0,3.5,13*52
$GNZDA,132845.00,19,11,2018,00,00*72
$GNRMC,132846.00,A,1346.88726,N,10040.46324,E,0.100,,191118,,,A,V*1F
$GNVTG,,T,,M,0.100,N,0.185,K,A*30
$GNGNS,132846.00,1346.88726,N,10040.46324,E,ANNA,09,0.90,0.6,-27.4,,,V*33
$GNGGA,132846.00,1346.88726,N,10040.46324,E,1,09,0.90,0.6,M,-27.4,M,,*63
$GNGSA,A,3,03,23,31,16,26,22,27,08,,,,,2.13,0.90,1.93,1*0D
$GNGSA,A,3,13,,,,,,,,,,,,2.13,0.90,1.93,4*04
$GPGSV,4,1,13,03,36,253,35,08,40,182,10,09,10,324,21,11,05,200,11,0*69
$GPGSV,4,2,13,14,29,131,21,16,52,002,18,18,07,189,,22,34,227,17,0*6C
$GPGSV,4,3,13,23,35,327,35,26,30,026,28,27,59,139,31,31,20,067,21,0*6C
$GPGSV,4,4,13,32,09,139,,0*54
$GBGSV,1,1,04,05,,,29,09,89,293,26,13,16,175,26,22,,,21,0*78
$GNGLL,1346.88726,N,10040.46324,E,132846.00,A,A*7C
$GNGST,132846.00,51,,,,3.1,3.5,13*6F
$GNZDA,132846.00,19,11,2018,00,00*71
$GNRMC,132847.00,A,1346.88723,N,10040.46331,E,0.162,,191118,,,A,V*1B
$GNVTG,,T,,M,0.162,N,0.300,K,A*3B
$GNGNS,132847.00,1346.88723,N,10040.46331,E,ANNA,09,0.90,0.1,-27.4,,,V*34
$GNGGA,132847.00,1346.88723,N,10040.46331,E,1,09,0.90,0.1,M,-27.4,M,,*64
$GNGSA,A,3,03,23,31,16,26,22,27,08,,,,,2.13,0.90,1.93,1*0D
$GNGSA,A,3,13,,,,,,,,,,,,2.13,0.90,1.93,4*04
$GPGSV,4,1,13,03,36,253,35,08,40,182,12,09,10,324,21,11,05,200,08,0*63
$GPGSV,4,2,13,14,29,131,21,16,52,002,19,18,07,189,,22,34,227,17,0*6D
$GPGSV,4,3,13,23,35,327,35,26,30,026,28,27,59,139,31,31,20,067,21,0*6C
$GPGSV,4,4,13,32,09,139,,0*54
$GNGLL,1346.88723,N,10040.46331,E,132847.00,A,A*7C
$GNGST,132847.00,1001,,,,3.1,3.5,13*6A
$GNZDA,132847.00,19,11,2018,00,00*70
$GNRMC,132848.00,A,1346.88722,N,10040.46335,E,0.088,,191118,,,A,V*14
$GNVTG,,T,,M,0.088,N,0.162,K,A*38
$GNGNS,132848.00,1346.88722,N,10040.46335,E,ANNA,09,0.90,-0.3,-27.4,,,V*11
$GNGGA,132848.00,1346.88722,N,10040.46335,E,1,09,0.90,-0.3,M,-27.4,M,,*41
$GNGSA,A,3,03,23,31,16,26,22,27,08,,,,,2.13,0.90,1.93,1*0D
$GNGSA,A,3,13,,,,,,,,,,,,2.13,0.90,1.93,4*04
$GPGSV,4,1,13,03,36,253,36,08,40,182,12,09,10,324,21,11,05,200,07,0*6F
$GPGSV,4,2,13,14,29,131,21,16,52,002,19,18,07,189,,22,34,227,17,0*6D
$GPGSV,4,3,13,23,35,327,35,26,30,026,28,27,59,139,31,31,20,067,20,0*6D
$GPGSV,4,4,13,32,09,139,,0*54
$GBGSV,1,1,04,05,,,30,09,89,293,24,13,16,175,26,22,,,22,0*71
$GNGLL,1346.88722,N,10040.46335,E,132848.00,A,A*76
$GNGST,132848.00,1001,,,,3.1,3.5,13*65
$GNZDA,132848.00,19,11,2018,00,00*7F
$GNRMC,132849.00,A,1346.88720,N,10040.46338,E,0.064,,191118,,,A,V*18
$GNVTG,,T,,M,0.064,N,0.119,K,A*36
$GNGNS,132849.00,1346.88720,N,10040.46338,E,ANNA,09,0.90,-0.9,-27.4,,,V*15
$GNGGA,132849.00,1346.88720,N,10040.46338,E,1,09,0.90,-0.9,M,-27.4,M,,*45
$GNGSA,A,3,03,23,31,16,26,22,27,08,,,,,2.13,0.90,1.93,1*0D
$GNGSA,A,3,13,,,,,,,,,,,,2.13,0.90,1.93,4*04
$GPGSV,4,1,13,03,36,253,36,08,40,182,15,09,10,324,21,11,05,200,08,0*67
$GPGSV,4,2,13,14,29,131,21,16,52,002,19,18,07,189,,22,34,227,15,0*6F
$GPGSV,4,3,13,23,35,327,35,26,30,026,28,27,59,139,31,31,20,067,20,0*6D
$GPGSV,4,4,13,32,09,139,,0*54
$GBGSV,1,1,04,05,,,30,09,89,293,23,13,16,175,26,22,,,22,0*76
$GNGLL,1346.88720,N,10040.46338,E,132849.00,A,A*78
$GNGST,132849.00,49,,,,3.1,3.4,13*68
$GNZDA,132849.00,19,11,2018,00,00*7E
$GNRMC,132850.00,A,1346.88719,N,10040.46339,E,0.109,,191118,,,A,V*11
$GNVTG,,T,,M,0.109,N,0.203,K,A*34
$GNGNS,132850.00,1346.88719,N,10040.46339,E,ANNA,09,0.90,-1.3,-27.4,,,V*1D
$GNGGA,132850.00,1346.88719,N,10040.46339,E,1,09,0.90,-1.3,M,-27.4,M,,*4D
$GNGSA,A,3,03,23,31,16,26,22,27,08,,,,,2.13,0.90,1.93,1*0D
$GNGSA,A,3,13,,,,,,,,,,,,2.13,0.90,1.93,4*04
$GPGSV,4,1,13,03,36,253,35,08,40,182,10,09,10,324,21,11,05,200,,0*69
$GPGSV,4,2,13,14,29,131,21,16,52,002,20,18,07,189,,22,34,227,13,0*63
$GPGSV,4,3,13,23,35,327,35,26,30,026,28,27,59,139,31,31,20,067,20,0*6D
$GPGSV,4,4,13,32,09,139,,0*54
$GBGSV,1,1,04,05,,,30,09,89,293,23,13,16,175,26,22,,,22,0*76
$GNGLL,1346.88719,N,10040.46339,E,132850.00,A,A*7B
$GNGST,132850.00,107925,,,,3.1,3.4,13*65
$GNZDA,132850.00,19,11,2018,00,00*76
$GNRMC,132851.00,A,1346.88720,N,10040.46341,E,0.155,,191118,,,A,V*1C
$GNVTG,,T,,M,0.155,N,0.286,K,A*30
$GNGNS,132851.00,1346.88720,N,10040.46341,E,ANNA,09,0.90,-1.3,-27.4,,,V*19
$GNGGA,132851.00,1346.88720,N,10040.46341,E,1,09,0.90,-1.3,M,-27.4,M,,*49
$GNGSA,A,3,03,23,31,16,26,22,27,08,,,,,2.13,0.90,1.93,1*0D
$GNGSA,A,3,13,,,,,,,,,,,,2.13,0.90,1.93,4*04
$GPGSV,4,1,13,03,36,253,35,08,40,182,11,09,10,324,21,11,05,200,,0*68
$GPGSV,4,2,13,14,29,131,21,16,52,002,20,18,07,189,,22,34,227,14,0*64
$GPGSV,4,3,13,23,35,327,35,26,30,026,28,27,59,138,30,31,20,067,20,0*6D
$GPGSV,4,4,13,32,09,139,,0*54
$GBGSV,2,1,05,05,,,30,09,89,293,23,10,55,325,,13,16,175,26,0*41
$GBGSV,2,2,05,22,,,22,0*72
$GNGLL,1346.88720,N,10040.46341,E,132851.00,A,A*7F
$GNGST,132851.00,159889,,,,3.1,3.4,13*68
$GNZDA,132851.00,19,11,2018,00,00*77
$GNRMC,132852.00,A,1346.88718,N,10040.46346,E,0.128,,191118,,,A,V*19
$GNVTG,,T,,M,0.128,N,0.236,K,A*31
$GNGNS,132852.00,1346.88718,N,10040.46346,E,ANNA,09,0.90,-1.7,-27.4,,,V*12
$GNGGA,132852.00,1346.88718,N,10040.46346,E,1,09,0.90,-1.7,M,-27.4,M,,*42
$GNGSA,A,3,03,23,31,16,26,22,27,08,,,,,2.13,0.90,1.93,1*0D
$GNGSA,A,3,13,,,,,,,,,,,,2.13,0.90,1.93,4*04
$GPGSV,4,1,13,03,36,253,36,08,40,182,16,09,10,324,22,11,05,200,,0*6F
$GPGSV,4,2,13,14,29,131,21,16,52,002,21,18,07,189,,22,34,227,13,0*62
$GPGSV,4,3,13,23,35,327,35,26,30,026,29,27,59,138,31,31,20,067,18,0*66
$GPGSV,4,4,13,32,09,139,,0*54
$GBGSV,2,1,05,05,,,31,09,89,293,23,10,55,325,,13,16,175,26,0*40
$GBGSV,2,2,05,22,,,23,0*73
$GNGLL,1346.88718,N,10040.46346,E,132852.00,A,A*70
$GNGST,132852.00,54,,,,3.1,3.4,13*6E
$GNZDA,132852.00,19,11,2018,00,00*74
$GNRMC,132853.00,A,1346.88719,N,10040.46346,E,0.128,,191118,,,A,V*19
$GNVTG,,T,,M,0.128,N,0.237,K,A*30
$GNGNS,132853.00,1346.88719,N,10040.46346,E,ANNA,09,0.90,-1.7,-27.4,,,V*12
$GNGGA,132853.00,1346.88719,N,10040.46346,E,1,09,0.90,-1.7,M,-27.4,M,,*42
$GNGSA,A,3,03,23,31,16,26,22,27,08,,,,,2.13,0.90,1.93,1*0D
$GNGSA,A,3,13,,,,,,,,,,,,2.13,0.90,1.93,4*04
$GPGSV,4,1,13,03,36,253,36,08,40,182,13,09,10,324,21,11,05,200,,0*69
$GPGSV,4,2,13,14,29,131,21,16,52,002,21,18,07,189,,22,34,227,15,0*64
$GPGSV,4,3,13,23,35,327,35,26,30,026,29,27,59,138,31,31,20,067,17,0*69
$GPGSV,4,4,13,32,09,139,,0*54
$GBGSV,2,1,05,05,,,30,09,89,293,23,10,55,325,,13,16,175,26,0*41
$GBGSV,2,2,05,22,,,23,0*73
$GNGLL,1346.88719,N,10040.46346,E,132853.00,A,A*70
$GNGST,132853.00,67953,,,,3.1,3.4,13*50
$GNZDA,132853.00,19,11,2018,00,00*75
$GNRMC,132854.00,A,1346.88716,N,10040.46346,E,0.118,,191118,,,A,V*12
$GNVTG,,T,,M,0.118,N,0.219,K,A*3F
$GNGNS,132854.00,1346.88716,N,10040.46346,E,ANNA,09,0.90,-1.9,-27.4,,,V*14
$GNGGA,132854.00,1346.88716,N,10040.46346,E,1,09,0.90,-1.9,M,-27.4,M,,*44
$GNGSA,A,3,03,23,31,16,26,22,27,08,,,,,2.13,0.90,1.93,1*0D
$GNGSA,A,3,13,,,,,,,,,,,,2.13,0.90,1.93,4*04
$GPGSV,4,1,13,03,36,253,35,08,40,182,13,09,10,324,21,11,05,200,,0*6A
$GPGSV,4,2,13,14,29,131,20,16,52,002,22,18,07,189,,22,34,227,16,0*65
$GPGSV,4,3,13,23,35,327,35,26,30,026,29,27,59,138,31,31,20,068,17,0*66
$GPGSV,4,4,13,32,09,139,,0*54
$GBGSV,2,1,05,05,,,30,09,89,293,23,10,55,325,,13,16,175,26,0*41
$GBGSV,2,2,05,22,,,23,0*73
$GNGLL,1346.88716,N,10040.46346,E,132854.00,A,A*78
$GNGST,132854.00,99931,,,,3.1,3.4,14*55
$GNZDA,132854.00,19,11,2018,00,00*72
V*17
$GNVTG,,T,,M,0.053,N,0.098,K,A*3A
$GNGNS,132855.00,1346.88713,N,10040.46349,E,ANNA,09,0.90,-2.4,-27.4,,,V*11
$GNGGA,132855.00,1346.88713,N,10040.46349,E,1,09,0.90,-2.4,M,-27.4,M,,*41
$GNGSA,A,3,03,23,31,16,26,22,27,08,,,,,2.13,0.90,1.93,1*0D
$GNGSA,A,3,13,,,,,,,,,,,,2.13,0.90,1.93,4*04
$GPGSV,4,1,13,03,36,253,35,08,40,182,10,09,10,324,21,11,05,200,,0*69
$GPGSV,4,2,13,14,29,131,20,16,52,002,22,18,07,189,,22,34,227,15,0*66
$GPGSV,4,3,13,23,35,327,34,26,30,026,29,27,59,138,30,31,20,068,16,0*67
$GPGSV,4,4,13,32,09,139,,0*54
$GBGSV,2,1,05,05,,,30,09,89,293,23,10,55,325,,13,16,175,26,0*41
$GBGSV,2,2,05,22,,,23,0*73
$GNGLL,1346.88713,N,10040.46349,E,132855.00,A,A*73
$GNGST,132855.00,54,,,,3.1,3.4,14*6E
$GNZDA,132855.00,19,11,2018,00,00*73
$GNRMC,132856.00,A,1346.88708,N,10040.46350,E,0.099,,191118,,,A,V*10
$GNVTG,,T,,M,0.099,N,0.184,K,A*30
$GNGNS,132856.00,1346.88708,N,10040.46350,E,ANNA,09,0.90,-2.8,-27.4,,,V*1C
$GNGGA,132856.00,1346.88708,N,10040.46350,E,1,09,0.90,-2.8,M,-27.4,M,,*4C
$GNGSA,A,3,03,23,31,16,26,22,27,08,,,,,2.13,0.90,1.93,1*0D
$GNGSA,A,3,13,,,,,,,,,,,,2.13,0.90,1.93,4*04
$GPGSV,4,1,13,03,36,253,35,08,40,182,12,09,10,324,21,11,05,200,,0*6B
$GPGSV,4,2,13,14,29,131,20,16,52,002,22,18,07,189,,22,34,227,16,0*65
$GPGSV,4,3,13,23,35,327,35,26,30,026,29,27,59,138,31,31,20,068,15,0*64
$GPGSV,4,4,13,32,09,139,,0*54
$GBGSV,2,1,05,05,,,31,09,89,293,23,10,55,325,,13,16,175,26,0*40
$GBGSV,2,2,05,22,,,24,0*74
$GNGLL,1346.88708,N,10040.46350,E,132856.00,A,A*72
$GNGST,132856.00,52,,,,3.1,3.4,14*6B
$GNZDA,132856.00,19,11,2018,00,00*70
$GNRMC,132857.00,A,1346.88708,N,10040.46346,E,0.051,,191118,,,A,V*12
$GNVTG,,T,,M,0.051,N,0.094,K,A*34
$GNGNS,132857.00,1346.88708,N,10040.46346,E,ANNA,09,0.90,-2.7,-27.4,,,V*15
$GNGGA,132857.00,1346.88708,N,10040.46346,E,1,09,0.90,-2.7,M,-27.4,M,,*45
$GNGSA,A,3,03,23,31,16,26,22,27,08,,,,,2.13,0.90,1.93,1*0D
$GNGSA,A,3,13,,,,,,,,,,,,2.13,0.90,1.93,4*04
$GPGSV,4,1,13,03,36,253,35,08,40,182,15,09,10,324,22,11,05,200,,0*6F
$GPGSV,4,2,13,14,29,131,20,16,52,002,21,18,07,189,,22,34,227,17,0*67
$GPGSV,4,3,13,23,35,327,34,26,30,026,29,27,59,138,31,31,20,068,15,0*65
$GPGSV,4,4,13,32,09,139,,0*54
$GBGSV,2,1,05,05,,,33,09,89,293,23,10,55,325,,13,16,175,25,0*41
$GBGSV,2,2,05,22,,,26,0*76
$GNGLL,1346.88708,N,10040.46346,E,132857.00,A,A*74
$GNGST,132857.00,48,,,,3.1,3.4,14*61
$GNZDA,132857.00,19,11,2018,00,00*71
V*14
$GNVTG,,T,,M,0.034,N,0.064,K,A*38
$GNGNS,132858.00,1346.88707,N,10040.46343,E,ANNA,09,0.90,-2.5,-27.4,,,V*12
$GNGGA,132858.00,1346.88707,N,10040.46343,E,1,09,0.90,-2.5,M,-27.4,M,,*42
$GNGSA,A,3,03,23,31,16,26,22,27,08,,,,,2.13,0.90,1.93,1*0D
$GNGSA,A,3,13,,,,,,,,,,,,2.13,0.90,1.93,4*04
$GPGSV,4,1,13,03,36,253,34,08,40,182,16,09,10,324,22,11,05,200,18,0*64
$GPGSV,4,2,13,14,29,131,19,16,52,002,22,18,07,189,,22,34,227,19,0*60
$GPGSV,4,3,13,23,35,327,34,26,30,026,28,27,59,138,31,31,20,068,15,0*64
$GPGSV,4,4,13,32,09,139,,0*54
$GBGSV,2,1,05,05,,,33,09,89,293,23,10,55,325,,13,16,175,25,0*41
$GBGSV,2,2,05,22,,,29,0*79
$GNGLL,1346.88707,N,10040.46343,E,132858.00,A,A*71
$GNGST,132858.00,48,,,,3.1,3.4,14*6E
$GNZDA,132858.00,19,11,2018,00,00*7E
$GNRMC,132859.00,A,1346.88702,N,10040.46344,E,0.123,,191118,,,A,V*10
$GNVTG,,T,,M,0.123,N,0.229,K,A*34
$GNGNS,132859.00,1346.88702,N,10040.46344,E,ANNA,09,0.90,-2.5,-27.4,,,V*11
$GNGGA,132859.00,1346.88702,N,10040.46344,E,1,09,0.90,-2.5,M,-27.4,M,,*41
$GNGSA,A,3,03,23,31,16,26,22,27,08,,,,,2.13,0.90,1.93,1*0D
$GNGSA,A,3,13,,,,,,,,,,,,2.13,0.90,1.93,4*04
$GPGSV,4,1,13,03,36,253,34,08,40,182,18,09,10,324,22,11,05,200,17,0*65
$GPGSV,4,2,13,14,29,131,19,16,52,002,22,18,07,189,,22,34,227,19,0*60
$GPGSV,4,3,13,23,35,327,34,26,30,026,29,27,59,138,30,31,20,068,17,0*66
$GPGSV,4,4,13,32,09,139,,0*54
$GBGSV,2,1,05,05,,,33,09,89,293,22,10,55,325,,13,16,175,25,0*40
$GBGSV,2,2,05,22,,,29,0*79
$GNGLL,1346.88702,N,10040.46344,E,132859.00,A,A*72
$GNGST,132859.00,44,,,,3.1,3.5,14*62
$GNZDA,132859.00,19,11,2018,00,00*7F
$GNRMC,132900.00,A,1346.88695,N,10040.46345,E,0.063,,191118,,,A,V*16
$GNVTG,,T,,M,0.063,N,0.117,K,A*3F
$GNGNS,132900.00,1346.88695,N,10040.46345,E,ANNA,09,0.90,-2.8,-27.4,,,V*1F
$GNGGA,132900.00,1346.88695,N,10040.46345,E,1,09,0.90,-2.8,M,-27.4,M,,*4F
$GNGSA,A,3,03,23,31,16,26,22,27,08,,,,,2.13,0.90,1.93,1*0D
$GNGSA,A,3,13,,,,,,,,,,,,2.13,0.90,1.93,4*04
$GPGSV,4,1,13,03,36,253,34,08,40,182,18,09,10,324,22,11,05,200,17,0*65
$GPGSV,4,2,13,14,29,131,,16,52,002,23,18,07,189,,22,34,227,18,0*68
$GPGSV,4,3,13,23,35,327,34,26,30,026,29,27,59,138,30,31,20,068,17,0*66
$GPGSV,4,4,13,32,09,139,,0*54
$GBGSV,2,1,05,05,,,33,09,89,293,22,10,55,325,,13,16,175,25,0*40
$GBGSV,2,2,05,22,,,28,0*78
$GNGLL,1346.88695,N,10040.46345,E,132900.00,A,A*71
$GNGST,132900.00,44,,,,3.2,3.5,14*6C
$GNZDA,132900.00,19,11,2018,00,00*72
$GNRMC,132901.00,A,1346.88692,N,10040.46349,E,0.145,,191118,,,A,V*19
$GNVTG,,T,,M,0.145,N,0.269,K,A*30
$GNGNS,132901.00,1346.88692,N,10040.46349,E,ANNA,09,0.90,-2.8,-27.4,,,V*15
$GNGGA,132901.00,1346.88692,N,10040.46349,E,1,09,0.90,-2.8,M,-27.4,M,,*45
$GNGSA,A,3,03,23,31,16,26,22,27,08,,,,,2.13,0.90,1.93,1*0D
$GNGSA,A,3,13,,,,,,,,,,,,2.13,0.90,1.93,4*04
$GPGSV,4,1,13,03,36,253,34,08,40,182,18,09,10,324,21,11,05,200,15,0*64
$GPGSV,4,2,13,14,29,131,,16,52,002,23,18,07,189,,22,34,227,18,0*68
$GPGSV,4,3,13,23,35,327,35,26,30,026,28,27,59,138,30,31,20,068,17,0*66
$GPGSV,4,4,13,32,09,139,,0*54

$GBGSV,2,2,05,22,,,26,0*76
$GNGLL,1346.88692,N,10040.46349,E,132901.00,A,A*7B
$GNGST,132901.00,44,,,,3.2,3.5,14*6D
$GNZDA,132901.00,19,11,2018,00,00*73
$GNRMC,132902.00,A,1346.88686,N,10040.46352,E,0.129,,191118,,,A,V*1F
$GNVTG,,T,,M,0.129,N,0.238,K,A*3E
$GNGNS,132902.00,1346.88686,N,10040.46352,E,ANNA,09,0.90,-2.9,-27.4,,,V*18
$GNGGA,132902.00,1346.88686,N,10040.46352,E,1,09,0.90,-2.9,M,-27.4,M,,*48
$GNGSA,A,3,03,23,31,16,26,22,27,08,,,,,2.13,0.90,1.93,1*0D
$GNGSA,A,3,13,,,,,,,,,,,,2.13,0.90,1.93,4*04
$GPGSV,4,1,13,03,36,253,34,08,40,182,18,09,10,324,21,11,05,200,15,0*64
$GPGSV,4,2,13,14,29,131,,16,52,002,23,18,07,189,,22,34,227,17,0*67
$GPGSV,4,3,13,23,35,327,35,26,30,026,28,27,59,138,30,31,20,068,19,0*68
$GPGSV,4,4,13,32,09,139,,0*54
$GBGSV,2,1,05,05,,,32,09,89,293,23,10,55,325,,13,16,175,27,0*42
$GBGSV,2,2,05,22,,,25,0*75
$GNGLL,1346.88686,N,10040.46352,E,132902.00,A,A*77
$GNGST,132902.00,44,,,,3.2,3.5,14*6E
$GNZDA,132902.00,19,11,2018,00,00*70
$GNRMC,133641.00,A,1346.88230,N,10040.46037,E,0.073,,191118,,,D,V*14
$GNVTG,,T,,M,0.073,N,0.136,K,D*38
$GNGNS,133641.00,1346.88230,N,10040.46037,E,DNNA,12,0.87,5.5,-27.4,,0000,V*37
$GNGGA,133641.00,1346.88230,N,10040.46037,E,2,12,0.87,5.5,M,-27.4,M,,0000*61
$GNGSA,A,3,03,41,23,31,16,26,22,40,27,08,,,1.90,0.87,1.68,1*06
$GNGSA,A,3,13,05,,,,,,,,,,,1.90,0.87,1.68,4*0B
$GPGSV,4,1,15,03,35,249,39,08,44,181,29,09,12,324,,11,07,198,,0*67
$GPGSV,4,2,15,14,27,134,15,16,49,005,11,18,08,186,,22,33,223,30,0*64
$GPGSV,4,3,15,23,39,326,26,26,27,028,18,27,62,132,26,31,19,071,23,0*64
$GPGSV,4,4,15,32,06,140,,40,36,257,30,41,64,233,31,0*56
$GBGSV,2,1,08,01,43,105,,05,39,253,36,09,88,229,20,10,54,326,,0*75
$GBGSV,2,2,08,13,17,175,29,16,66,157,,22,,,39,30,,,23,0*7F
$GNGLL,1346.88230,N,10040.46037,E,133641.00,A,D*72
$GNGST,133641.00,72334,,,,4.5,3.0,11*56
$GNZDA,133641.00,19,11,2018,00,00*79
$GNTXT,01,01,02,u-blox AG - www.u-blox.com*4E
$GNTXT,01,01,02,HW UBX-M8030 00080000*60
$GNTXT,01,01,02,ROM CORE 3.01 (107888)*2B
$GNTXT,01,01,02,FWVER=SPG 3.01*46
$GNTXT,01,01,02,PROTVER=18.00*11
$GNTXT,01,01,02,GPS;GLO;GAL;BDS*77
$GNTXT,01,01,02,SBAS;IMES;QZSS*49
$GNTXT,01,01,02,GNSS OTP=GPS;GLO*37
$GNTXT,01,01,02,LLC=FFFFFFFF-FFFFFFFF-FFFFFFFF-FFFFFFFF-FFFFFFFD*2F
$GNTXT,01,01,02,ANTSUPERV=AC SD PDoS SR*3E
$GNTXT,01,01,02,ANTSTATUS=OK*25
$GNTXT,01,01,02,PF=3FF*4B
$GNRMC,133642.00,A,1346.88231,N,10040.46040,E,0.069,,191118,,,D,V*1D
$GNVTG,,T,,M,0.069,N,0.128,K,D*3C
$GNGNS,133642.00,1346.88231,N,10040.46040,E,DNNA,12,0.87,5.6,-27.4,,0000,V*36
$GNGGA,133642.00,1346.88231,N,10040.46040,E,2,12,0.87,5.6,M,-27.4,M,,0000*60
$GNGSA,A,3,03,41,23,31,16,26,22,40,27,08,,,1.90,0.87,1.68,1*06
$GNGSA,A,3,13,05,,,,,,,,,,,1.90,0.87,1.68,4*0B
$GPGSV,4,1,15,03,35,249,39,08,44,181,29,09,12,324,,11,07,198,,0*67
$GPGSV,4,2,15,14,27,134,15,16,49,005,08,18,08,186,,22,33,223,30,0*6C
$GPGSV,4,3,15,23,39,326,26,26,27,028,18,27,62,132,26,31,19,071,23,0*64
$GPGSV,4,4,15,32,06,140,,40,36,257,30,41,64,233,31,0*56
$GBGSV,2,1,08,01,43,105,,05,39,253,37,09,88,229,19,10,54,326,,0*7E
$GBGSV,2,2,08,13,17,175,29,16,66,157,,22,,,39,30,,,23,0*7F
$GNGLL,1346.88231,N,10040.46040,E,133642.00,A,D*70
$GNGST,133642.00,108483,,,,4.6,3.0,11*61
$GNZDA,133642.00,19,11,2018,00,00*7A
$GNRMC,133643.00,A,1346.88233,N,10040.46040,E,0.027,,191118,,,D,V*14
$GNVTG,,T,,M,0.027,N,0.050,K,D*38
$GNGNS,133643.00,1346.88233,N,10040.46040,E,DNNA,11,0.95,5.5,-27.4,,0000,V*36
$GNGGA,133643.00,1346.88233,N,10040.46040,E,2,11,0.95,5.5,M,-27.4,M,,0000*60
$GNGSA,A,3,03,41,23,31,26,22,40,27,08,,,,1.96,0.95,1.72,1*0F
$GNGSA,A,3,13,05,,,,,,,,,,,1.96,0.95,1.72,4*05
$GPGSV,4,1,15,03,35,249,39,08,44,181,29,09,12,324,,11,07,198,,0*67
$GPGSV,4,2,15,14,27,134,14,16,49,005,09,18,08,186,,22,33,223,30,0*6C
$GPGSV,4,3,15,23,39,326,26,26,27,028,19,27,62,132,26,31,19,071,23,0*65
$GPGSV,4,4,15,32,06,140,,40,36,257,30,41,64,233,31,0*56
$GBGSV,2,1,08,01,43,105,,05,39,253,37,09,88,229,19,10,54,326,,0*7E
$GBGSV,2,2,08,13,17,175,29,16,66,157,,22,,,39,30,,,23,0*7F
$GNGLL,1346.88233,N,10040.46040,E,133643.00,A,D*73
$GNGST,133643.00,1833,,,,4.6,3.0,11*6F
$GNZDA,133643.00,19,11,2018,00,00*7B
$GNRMC,133644.00,A,1346.88236,N,10040.46040,E,0.054,,191118,,,D,V*12
$GNVTG,,T,,M,0.054,N,0.099,K,D*39
$GNGNS,133644.00,1346.88236,N,10040.46040,E,DNNA,11,0.95,5.6,-27.4,,0000,V*37
$GNGGA,133644.00,1346.88236,N,10040.46040,E,2,11,0.95,5.6,M,-27.4,M,,0000*61
$GNGSA,A,3,03,41,23,31,26,22,40,27,08,,,,1.96,0.95,1.72,1*0F
$GNGSA,A,3,13,05,,,,,,,,,,,1.96,0.95,1.72,4*05
$GPGSV,4,1,15,03,35,249,39,08,44,181,29,09,12,324,,11,07,198,,0*67
$GPGSV,4,2,15,14,27,134,14,16,49,005,08,18,08,186,,22,33,223,30,0*6D
$GPGSV,4,3,15,23,39,326,26,26,27,028,19,27,62,132,25,31,19,071,24,0*61
$GPGSV,4,4,15,32,06,140,,40,36,257,30,41,64,233,32,0*55
$GBGSV,2,1,08,01,43,105,,05,39,253,37,09,88,229,19,10,54,326,,0*7E
$GBGSV,2,2,08,13,17,175,29,16,66,157,,22,,,39,30,,,24,0*78
$GNGLL,1346.88236,N,10040.46040,E,133644.00,A,D*71
$GNGST,133644.00,1833,,,,4.6,3.0,11*68
$GNZDA,133644.00,19,11,2018,00,00*7C
$GNRMC,133645.00,A,1346.88238,N,10040.46040,E,0.054,,191118,,,D,V*1D
$GNVTG,,T,,M,0.054,N,0.100,K,D*38
$GNGNS,133645.00,1346.88238,N,10040.46040,E,DNNA,11,0.95,5.6,-27.4,,0000,V*38
$GNGGA,133645.00,1346.88238,N,10040.46040,E,2,11,0.95,5.6,M,-27.4,M,,0000*6E
$GNGSA,A,3,03,41,23,31,26,22,40,27,08,,,,1.96,0.95,1.72,1*0F
$GNGSA,A,3,13,05,,,,,,,,,,,1.96,0.95,1.72,4*05
$GPGSV,4,1,15,03,35,249,39,08,44,181,30,09,12,324,,11,07,198,,0*6F
$GPGSV,4,2,15,14,27,134,14,16,49,005,08,18,08,186,,22,33,223,30,0*6D
$GPGSV,4,3,15,23,39,326,26,26,27,028,19,27,62,132,26,31,19,071,24,0*62
$GPGSV,4,4,15,32,06,140,,40,36,257,30,41,64,233,32,0*55
$GBGSV,2,1,08,01,43,105,,05,39,253,37,09,88,229,19,10,54,326,,0*7E
$GBGSV,2,2,08,13,17,175,29,16,66,157,,22,,,39,30,,,24,0*78
$GNGLL,1346.88238,N,10040.46040,E,133645.00,A,D*7E
$GNGST,133645.00,1833,,,,4.6,3.0,11*69
$GNZDA,133645.00,19,11,2018,00,00*7D
$GNRMC,133646.00,A,1346.88241,N,10040.46040,E,0.127,,191118,,,D,V*15
$GNVTG,,T,,M,0.127,N,0.235,K,D*38
$GNGNS,133646.00,1346.88241,N,10040.46040,E,DNNA,12,0.95,5.7,-27.4,,0000,V*37
$GNGGA,133646.00,1346.88241,N,10040.46040,E,2,12,0.95,5.7,M,-27.4,M,,0000*61
$GNGSA,A,3,03,41,23,31,16,26,22,40,27,08,,,1.96,0.95,1.72,1*08
$GNGSA,A,3,13,05,,,,,,,,,,,1.96,0.95,1.72,4*05
$GPGSV,4,1,15,03,35,249,39,08,44,181,30,09,12,324,,11,07,198,,0*6F
$GPGSV,4,2,15,14,27,134,11,16,49,005,08,18,08,186,,22,33,223,30,0*68
$GPGSV,4,3,15,23,39,326,26,26,27,028,18,27,62,132,26,31,19,071,24,0*63
$GPGSV,4,4,15,32,06,140,,40,36,257,30,41,64,233,31,0*56
$GBGSV,2,1,08,01,43,105,,05,39,253,36,09,88,229,18,10,54,326,,0*7E
$GBGSV,2,2,08,13,17,175,29,16,66,157,,22,,,39,30,,,24,0*78
$GNGLL,1346.88241,N,10040.46040,E,133646.00,A,D*73
$GNGST,133646.00,1833,,,,4.6,3.0,11*6A
$GNZDA,133646.00,19,11,2018,00,00*7E
$GNRMC,133647.00,A,1346.88241,N,10040.46039,E,0.181,,191118,,,D,V*16
$GNVTG,,T,,M,0.181,N,0.335,K,D*35
$GNGNS,133647.00,1346.88241,N,10040.46039,E,DNNA,12,0.88,5.8,-27.4,,0000,V*3B
$GNGGA,133647.00,1346.88241,N,10040.46039,E,2,12,0.88,5.8,M,-27.4,M,,0000*6D
$GNGSA,A,3,03,41,23,31,16,26,22,40,27,08,,,1.90,0.88,1.68,1*09
$GNGSA,A,3,13,05,,,,,,,,,,,1.90,0.88,1.68,4*04
$GPGSV,4,1,15,03,35,249,39,08,44,181,31,09,12,324,,11,07,198,,0*6E
$GPGSV,4,2,15,14,27,134,12,16,49,005,10,18,08,186,,22,33,223,30,0*62
$GPGSV,4,3,15,23,39,326,26,26,27,028,18,27,62,132,26,31,19,071,23,0*64
$GPGSV,4,4,15,32,06,140,,40,36,257,30,41,64,233,31,0*56
7E
$GBGSV,2,2,08,13,17,175,29,16,66,157,,22,,,39,30,,,25,0*79
$GNGLL,1346.88241,N,10040.46039,E,133647.00,A,D*7C
$GNGST,133647.00,462804,,,,4.7,3.0,11*6F
$GNZDA,133647.00,19,11,2018,00,00*7F
$GNRMC,133648.00,A,1346.88235,N,10040.46038,E,0.067,,191118,,,D,V*12
$GNVTG,,T,,M,0.067,N,0.124,K,D*3E
$GNGNS,133648.00,1346.88235,N,10040.46038,E,DNNA,12,0.88,5.8,-27.4,,0000,V*36
$GNGGA,133648.00,1346.88235,N,10040.46038,E,2,12,0.88,5.8,M,-27.4,M,,0000*60
$GNGSA,A,3,03,41,23,31,16,26,22,40,27,08,,,1.90,0.88,1.68,1*09
$GNGSA,A,3,13,05,,,,,,,,,,,1.90,0.88,1.68,4*04
$GPGSV,4,1,15,03,34,249,39,08,44,181,31,09,12,324,,11,07,198,,0*6F
$GPGSV,4,2,15,14,27,134,13,16,49,005,08,18,08,186,,22,33,223,31,0*6B
$GPGSV,4,3,15,23,39,326,26,26,27,028,19,27,62,132,26,31,19,071,22,0*64
$GPGSV,4,4,15,32,06,140,,40,36,257,30,41,64,233,31,0*56
$GBGSV,2,1,08,01,43,105,,05,39,253,36,09,88,229,18,10,54,326,,0*7E
$GBGSV,2,2,08,13,17,175,29,16,66,157,,22,,,39,30,,,25,0*79
$GNGLL,1346.88235,N,10040.46038,E,133648.00,A,D*71
$GNGST,133648.00,462804,,,,4.7,3.0,11*60
$GNZDA,133648.00,19,11,2018,00,00*70
$GNRMC,133649.00,A,1346.88238,N,10040.46038,E,0.121,,191118,,,D,V*1D
$GNVTG,,T,,M,0.121,N,0.224,K,D*3E
$GNGNS,133649.00,1346.88238,N,10040.46038,E,DNNA,12,0.85,5.8,-27.4,,0000,V*37
$GNGGA,133649.00,1346.88238,N,10040.46038,E,2,12,0.85,5.8,M,-27.4,M,,0000*61
$GNGSA,A,3,03,41,23,31,16,26,22,40,27,08,,,1.89,0.85,1.69,1*0D
$GNGSA,A,3,13,05,,,,,,,,,,,1.89,0.85,1.69,4*00
$GPGSV,4,1,15,03,34,249,39,08,44,181,31,09,12,324,,11,07,198,,0*6F
$GPGSV,4,2,15,14,27,134,13,16,49,005,10,18,08,186,,22,33,223,31,0*62
$GPGSV,4,3,15,23,39,326,27,26,27,028,19,27,62,132,26,31,19,071,21,0*66
$GPGSV,4,4,15,32,06,140,,40,36,257,30,41,64,233,31,0*56
$GBGSV,2,1,08,01,43,105,,05,39,253,36,09,88,229,19,10,54,326,,0*7F
$GBGSV,2,2,08,13,17,175,29,16,66,157,,22,,,39,30,,,25,0*79
$GNGLL,1346.88238,N,10040.46038,E,133649.00,A,D*7D
$GNGST,133649.00,1748,,,,4.6,3.0,11*66
$GNZDA,133649.00,19,11,2018,00,00*71
$GNRMC,133650.00,A,1346.88245,N,10040.46039,E,0.033,,191118,,,D,V*1C
$GNVTG,,T,,M,0.033,N,0.061,K,D*3F
$GNGNS,133650.00,1346.88245,N,10040.46039,E,DNNA,12,0.82,5.6,-27.4,,0000,V*3D
$GNGGA,133650.00,1346.88245,N,10040.46039,E,2,12,0.82,5.6,M,-27.4,M,,0000*6B
$GNGSA,A,3,03,41,23,31,16,26,22,40,27,08,,,1.82,0.82,1.63,1*0B
$GNGSA,A,3,13,05,,,,,,,,,,,1.82,0.82,1.63,4*06
$GPGSV,4,1,15,03,34,249,39,08,44,181,31,09,12,324,,11,07,198,,0*6F
$GPGSV,4,2,15,14,27,134,12,16,49,005,12,18,08,186,,22,33,223,32,0*62
$GPGSV,4,3,15,23,39,326,27,26,27,028,20,27,62,132,26,31,19,071,20,0*6D
$GPGSV,4,4,15,32,06,140,,40,36,257,30,41,64,233,31,0*56
$GBGSV,2,1,08,01,43,105,,05,39,253,36,09,88,229,18,10,54,326,,0*7E
$GBGSV,2,2,08,13,17,175,29,16,66,157,,22,,,39,30,,,25,0*79
$GNGLL,1346.88245,N,10040.46039,E,133650.00,A,D*7E
$GNGST,133650.00,3434012,,,,4.5,3.0,11*54
$GNZDA,133650.00,19,11,2018,00,00*79
$GNRMC,133651.00,A,1346.88253,N,10040.46041,E,0.024,,191118,,,D,V*13
$GNVTG,,T,,M,0.024,N,0.045,K,D*3F
$GNGNS,133651.00,1346.88253,N,10040.46041,E,DNNA,12,0.82,5.5,-27.4,,0000,V*37
$GNGGA,133651.00,1346.88253,N,10040.46041,E,2,12,0.82,5.5,M,-27.4,M,,0000*61
$GNGSA,A,3,03,41,23,31,16,26,22,40,27,08,,,1.82,0.82,1.63,1*0B
$GNGSA,A,3,13,05,,,,,,,,,,,1.82,0.82,1.63,4*06
$GPGSV,4,1,15,03,34,249,39,08,44,181,31,09,12,324,,11,07,198,,0*6F
$GPGSV,4,2,15,14,27,134,11,16,49,005,15,18,08,186,,22,33,223,32,0*66
$GPGSV,4,3,15,23,39,326,27,26,27,028,21,27,62,132,26,31,19,071,20,0*6C
$GPGSV,4,4,15,32,06,140,,40,36,257,30,41,64,233,31,0*56
$GBGSV,3,1,09,01,43,105,,02,64,229,,05,39,253,36,09,88,229,19,0*71
$GBGSV,3,2,09,10,54,326,,13,17,175,29,16,66,157,,22,,,39,0*4A
$GBGSV,3,3,09,30,,,25,0*7A
$GNGLL,1346.88253,N,10040.46041,E,133651.00,A,D*77
$GNGST,133651.00,3434012,,,,4.5,3.0,11*55
$GNZDA,133651.00,19,11,2018,00,00*78
$GNRMC,133652.00,A,1346.88262,N,10040.46044,E,0.004,,191118,,,D,V*15
$GNVTG,,T,,M,0.004,N,0.007,K,D*3B
$GNGNS,133652.00,1346.88262,N,10040.46044,E,DNNA,12,0.85,5.2,-27.4,,0000,V*33
$GNGGA,133652.00,1346.88262,N,10040.46044,E,2,12,0.85,5.2,M,-27.4,M,,0000*65
$GNGSA,A,3,03,41,23,31,16,26,22,40,27,08,,,1.89,0.85,1.69,1*0D
$GNGSA,A,3,13,05,,,,,,,,,,,1.89,0.85,1.69,4*00
$GPGSV,4,1,15,03,34,249,39,08,44,181,31,09,12,324,,11,07,198,,0*6F
$GPGSV,4,2,15,14,27,134,10,16,49,005,07,18,08,186,,22,33,223,32,0*64
$GPGSV,4,3,15,23,39,326,28,26,27,028,20,27,62,132,26,31,19,071,20,0*62
$GPGSV,4,4,15,32,06,140,,40,36,257,30,41,64,233,31,0*56
$GBGSV,3,1,09,01,43,105,,02,64,229,,05,39,253,36,09,88,229,19,0*71
$GBGSV,3,2,09,10,54,326,,13,17,175,29,16,66,157,,22,,,39,0*4A
$GBGSV,3,3,09,30,,,26,0*79
$GNGLL,1346.88262,N,10040.46044,E,133652.00,A,D*73
$GNGST,133652.00,1748,,,,4.4,3.0,11*6E
$GNZDA,133652.00,19,11,2018,00,00*7B
$GNRMC,133653.00,A,1346.88274,N,10040.46048,E,0.119,,191118,,,D,V*12
$GNVTG,,T,,M,0.119,N,0.220,K,D*31
$GNGNS,133653.00,1346.88274,N,10040.46048,E,DNNA,12,0.82,4.8,-27.4,,0000,V*35
$GNGGA,133653.00,1346.88274,N,10040.46048,E,2,12,0.82,4.8,M,-27.4,M,,0000*63
$GNGSA,A,3,03,41,23,31,16,26,22,40,27,08,,,1.82,0.82,1.63,1*0B
$GNGSA,A,3,13,05,,,,,,,,,,,1.82,0.82,1.63,4*06
$GPGSV,4,1,15,03,34,249,39,08,44,181,30,09,13,324,,11,07,198,,0*6F
$GPGSV,4,2,15,14,27,134,08,16,49,005,14,18,08,186,,22,33,223,32,0*6F
$GPGSV,4,3,15,23,39,326,28,26,27,028,20,27,62,132,26,31,19,071,21,0*63
$GPGSV,4,4,15,32,06,140,,40,36,257,30,41,64,233,31,0*56
$GBGSV,3,1,09,01,43,105,,02,64,229,,05,39,253,36,09,88,229,19,0*71
$GBGSV,3,2,09,10,54,326,,13,17,175,29,16,66,157,,22,,,39,0*4A
$GBGSV,3,3,09,30,,,26,0*79
$GNGLL,1346.88274,N,10040.46048,E,133653.00,A,D*79
$GNGST,133653.00,3434012,,,,4.4,3.0,11*56
$GNZDA,133653.00,19,11,2018,00,00*7A
$GNRMC,133654.00,A,1346.88277,N,10040.46046,E,0.052,,191118,,,D,V*16
$GNVTG,,T,,M,0.052,N,0.096,K,D*30
$GNGNS,133654.00,1346.88277,N,10040.46046,E,DNNA,12,0.82,4.6,-27.4,,0000,V*31
$GNGGA,133654.00,1346.88277,N,10040.46046,E,2,12,0.82,4.6,M,-27.4,M,,0000*67
$GNGSA,A,3,03,41,23,31,16,26,22,40,27,08,,,1.82,0.82,1.63,1*0B
$GNGSA,A,3,13,05,,,,,,,,,,,1.82,0.82,1.63,4*06
$GPGSV,4,1,15,03,34,249,39,08,44,181,30,09,13,324,,11,07,198,,0*6F
$GPGSV,4,2,15,14,27,134,08,16,49,005,12,18,08,186,,22,33,223,32,0*69
$GPGSV,4,3,15,23,39,326,28,26,27,028,20,27,62,132,26,31,19,071,21,0*63
$GPGSV,4,4,15,32,06,140,,40,36,257,30,41,64,233,31,0*56
$GBGSV,3,1,09,01,43,105,,02,64,229,,05,39,253,36,09,88,229,18,0*70
$GBGSV,3,2,09,10,54,326,,13,17,175,29,16,66,157,,22,,,39,0*4A
$GBGSV,3,3,09,30,,,26,0*79
$GNGLL,1346.88277,N,10040.46046,E,133654.00,A,D*73
$GNGST,133654.00,3434012,,,,4.3,3.0,11*56
$GNZDA,133654.00,19,11,2018,00,00*7D
$GNRMC,133655.00,A,1346.88281,N,10040.46046,E,0.133,,191118,,,D,V*18
$GNVTG,,T,,M,0.133,N,0.247,K,D*38
$GNGNS,133655.00,1346.88281,N,10040.46046,E,DNNA,12,0.82,4.4,-27.4,,0000,V*3B
$GNGGA,133655.00,1346.88281,N,10040.46046,E,2,12,0.82,4.4,M,-27.4,M,,0000*6D
$GNGSA,A,3,03,41,23,31,16,26,22,40,27,08,,,1.82,0.82,1.63,1*0B
$GNGSA,A,3,13,05,,,,,,,,,,,1.82,0.82,1.63,4*06
$GPGSV,4,1,15,03,34,249,38,08,44,181,31,09,13,324,,11,07,198,,0*6F
$GPGSV,4,2,15,14,27,134,10,16,49,005,09,18,08,186,,22,33,223,32,0*6A
$GPGSV,4,3,15,23,39,326,28,26,27,028,20,27,62,132,27,31,19,071,21,0*62
$GPGSV,4,4,15,32,06,140,,40,36,257,30,41,64,233,31,0*56
$GBGSV,3,1,09,01,43,105,,02,64,229,,05,39,253,36,09,88,229,18,0*70
$GBGSV,3,2,09,10,54,326,,13,17,175,29,16,66,157,,22,,,39,0*4A
$GBGSV,3,3,09,30,,,26,0*79
$GNGLL,1346.88281,N,10040.46046,E,133655.00,A,D*7B
$GNGST,133655.00,1674,,,,4.3,3.0,11*60
$GNZDA,133655.00,19,11,2018,00,00*7C
$GNRMC,133656.00,A,1346.88291,N,10040.46046,E,0.038,,191118,,,D,V*10
$GNVTG,,T,,M,0.038,N,0.070,K,D*34
$GNGNS,133656.00,1346.88291,N,10040.46046,E,DNNA,12,0.82,4.0,-27.4,,0000,V*3D
$GNGGA,133656.00,1346.88291,N,10040.46046,E,2,12,0.82,4.0,M,-27.4,M,,0000*6B
$GNGSA,A,3,03,41,23,31,16,26,22,40,27,08,,,1.82,0.82,1.63,1*0B
$GNGSA,A,3,13,05,,,,,,,,,,,1.82,0.82,1.63,4*06
$GPGSV,4,1,15,03,34,249,38,08,44,181,31,09,13,324,,11,07,198,,0*6F
$GPGSV,4,2,15,14,27,134,09,16,49,005,11,18,08,186,,22,33,223,31,0*68
$GPGSV,4,3,15,23,39,326,28,26,27,028,20,27,62,132,27,31,19,071,22,0*61
$GPGSV,4,4,15,32,06,140,,40,36,257,30,41,64,233,31,0*56
$GBGSV,3,1,09,01,43,105,,02,64,229,27,05,39,253,36,09,88,229,18,0*75
$GBGSV,3,2,09,10,54,326,,13,17,175,29,16,66,157,,22,,,39,0*4A
$GBGSV,3,3,09,30,,,26,0*79
$GNGLL,1346.88291,N,10040.46046,E,133656.00,A,D*79
$GNGST,133656.00,34657,,,,4.2,3.0,11*55
$GNZDA,133656.00,19,11,2018,00,00*7F
$GNRMC,133657.00,A,1346.88296,N,10040.46043,E,0.053,,191118,,,D,V*1E
$GNVTG,,T,,M,0.053,N,0.099,K,D*3E
$GNGNS,133657.00,1346.88296,N,10040.46043,E,DNNA,12,0.82,3.7,-27.4,,0000,V*3E
$GNGGA,133657.00,1346.88296,N,10040.46043,E,2,12,0.82,3.7,M,-27.4,M,,0000*68
$GNGSA,A,3,03,41,23,31,16,26,22,40,27,08,,,1.82,0.82,1.63,1*0B
$GNGSA,A,3,13,05,,,,,,,,,,,1.82,0.82,1.63,4*06
$GPGSV,4,1,15,03,34,249,39,08,44,181,31,09,13,324,,11,07,198,,0*6E
$GPGSV,4,2,15,14,27,134,08,16,49,005,09,18,08,186,,22,33,223,31,0*60
$GPGSV,4,3,15,23,39,326,27,26,27,028,20,27,62,132,27,31,19,071,21,0*6D
$GPGSV,4,4,15,32,06,140,,40,36,257,30,41,64,233,31,0*56
$GBGSV,3,1,09,01,43,105,,02,64,229,27,05,39,253,36,09,88,229,17,0*7A
$GBGSV,3,2,09,10,54,326,,13,17,175,28,16,66,157,,22,,,39,0*4B
$GBGSV,3,3,09,30,,,26,0*79
$GNGLL,1346.88296,N,10040.46043,E,133657.00,A,D*7A
$GNGST,133657.00,51953,,,,4.2,3.0,11*5C
$GNZDA,133657.00,19,11,2018,00,00*7E
$GNRMC,133658.00,A,1346.88306,N,10040.46049,E,0.153,,191118,,,D,V*12
$GNVTG,,T,,M,0.153,N,0.283,K,D*36
$GNGNS,133658.00,1346.88306,N,10040.46049,E,DNNA,12,0.95,3.3,-27.4,,0000,V*31
$GNGGA,133658.00,1346.88306,N,10040.46049,E,2,12,0.95,3.3,M,-27.4,M,,0000*67
$GNGSA,A,3,03,41,23,31,16,26,22,40,27,08,,,2.05,0.95,1.81,1*0D
$GNGSA,A,3,13,05,,,,,,,,,,,2.05,0.95,1.81,4*00
$GPGSV,4,1,15,03,34,249,39,08,44,181,32,09,13,324,,11,07,198,,0*6D
$GPGSV,4,2,15,14,26,134,08,16,49,005,13,18,08,186,,22,33,223,31,0*6A
$GPGSV,4,3,15,23,39,326,28,26,27,028,19,27,62,132,27,31,19,071,21,0*68
$GPGSV,4,4,15,32,06,140,,40,36,257,30,41,64,233,31,0*56
$GBGSV,3,1,09,01,43,105,,02,64,229,27,05,39,253,36,09,88,229,17,0*7A
$GBGSV,3,2,09,10,54,326,,13,17,175,28,16,66,157,,22,,,39,0*4B
$GBGSV,3,3,09,30,,,26,0*79
$GNGLL,1346.88306,N,10040.46049,E,133658.00,A,D*77
$GNGST,133658.00,1833,,,,4.2,3.0,11*61
$GNZDA,133658.00,19,11,2018,00,00*71
$GNRMC,133659.00,A,1346.88318,N,10040.46050,E,0.109,,191118,,,D,V*1B
$GNVTG,,T,,M,0.109,N,0.202,K,D*30
$GNGNS,133659.00,1346.88318,N,10040.46050,E,DNNA,12,0.91,2.8,-27.4,,0000,V*39
$GNGGA,133659.00,1346.88318,N,10040.46050,E,2,12,0.91,2.8,M,-27.4,M,,0000*6F
$GNGSA,A,3,03,41,23,31,16,26,22,40,27,08,,,2.00,0.91,1.78,1*0A
$GNGSA,A,3,13,05,,,,,,,,,,,2.00,0.91,1.78,4*07
$GPGSV,4,1,15,03,34,249,39,08,44,181,32,09,13,324,,11,07,198,,0*6D
$GPGSV,4,2,15,14,26,134,,16,49,005,11,18,08,186,,22,33,223,32,0*63
$GPGSV,4,3,15,23,39,326,28,26,27,028,19,27,62,132,28,31,19,071,21,0*67
$GPGSV,4,4,15,32,06,140,,40,36,257,30,41,64,233,31,0*56
$GBGSV,3,1,09,01,43,105,,02,64,229,27,05,39,253,36,09,88,229,17,0*7A
$GBGSV,3,2,09,10,54,326,,13,17,175,28,16,66,157,,22,,,39,0*4B
$GBGSV,3,3,09,30,,,27,0*78
$GNGLL,1346.88318,N,10040.46050,E,133659.00,A,D*71
$GNGST,133659.00,3586708,,,,4.2,3.0,11*5E
$GNZDA,133659.00,19,11,2018,00,00*70
$GNRMC,133700.00,A,1346.88328,N,10040.46051,E,0.082,,191118,,,D,V*16
$GNVTG,,T,,M,0.082,N,0.152,K,D*34
$GNGNS,133700.00,1346.88328,N,10040.46051,E,DNNA,12,0.91,2.4,-27.4,,0000,V*3A
$GNGGA,133700.00,1346.88328,N,10040.46051,E,2,12,0.91,2.4,M,-27.4,M,,0000*6C
$GNGSA,A,3,03,41,23,31,16,26,22,40,27,08,,,2.00,0.91,1.78,1*0A
$GNGSA,A,3,13,05,,,,,,,,,,,2.00,0.91,1.78,4*07
$GPGSV,4,1,15,03,34,249,39,08,44,181,32,09,13,324,,11,07,198,,0*6D
$GPGSV,4,2,15,14,26,134,,16,49,005,14,18,08,186,,22,33,223,32,0*66
$GPGSV,4,3,15,23,39,326,28,26,27,028,19,27,62,132,28,31,19,071,21,0*67
$GPGSV,4,4,15,32,06,140,,40,36,257,30,41,64,233,31,0*56
$GBGSV,3,1,09,01,43,105,,02,64,229,27,05,39,253,36,09,88,229,18,0*75
$GBGSV,3,2,09,10,54,326,,13,17,175,29,16,66,157,,22,,,39,0*4A
$GBGSV,3,3,09,30,,,27,0*78
$GNGLL,1346.88328,N,10040.46051,E,133700.00,A,D*7E
$GNGST,133700.00,3586708,,,,4.1,3.0,11*50
$GNZDA,133700.00,19,11,2018,00,00*7D
$GNRMC,133701.00,A,1346.88340,N,10040.46052,E,0.078,,191118,,,D,V*1F
$GNVTG,,T,,M,0.078,N,0.144,K,D*36
$GNGNS,133701.00,1346.88340,N,10040.46052,E,DNNA,12,0.91,1.7,-27.4,,0000,V*36
$GNGGA,133701.00,1346.88340,N,10040.46052,E,2,12,0.91,1.7,M,-27.4,M,,0000*60
$GNGSA,A,3,03,41,23,31,16,26,22,40,27,08,,,2.00,0.91,1.78,1*0A
$GNGSA,A,3,13,05,,,,,,,,,,,2.00,0.91,1.78,4*07
$GPGSV,4,1,15,03,34,249,39,08,44,181,32,09,13,324,,11,07,198,,0*6D
$GPGSV,4,2,15,14,26,134,,16,49,005,17,18,08,186,,22,33,223,33,0*64
$GPGSV,4,3,15,23,39,326,28,26,27,028,19,27,62,132,27,31,19,071,21,0*68
$GPGSV,4,4,15,32,06,140,,40,36,257,30,41,64,233,31,0*56
$GBGSV,3,1,09,01,43,105,,02,64,229,27,05,39,253,36,09,88,229,17,0*7A
$GBGSV,3,2,09,10,54,326,,13,17,175,28,16,66,157,,22,,,39,0*4B
$GBGSV,3,3,09,30,,,27,0*78
$GNGLL,1346.88340,N,10040.46052,E,133701.00,A,D*72
$GNGST,133701.00,1748,,,,4.1,3.0,11*6C
$GNZDA,133701.00,19,11,2018,00,00*7C
$GNRMC,133702.00,A,1346.88349,N,10040.46050,E,0.037,,191118,,,D,V*1C
$GNVTG,,T,,M,0.037,N,0.069,K,D*33
$GNGNS,133702.00,1346.88349,N,10040.46050,E,DNNA,12,0.91,1.3,-27.4,,0000,V*3A
$GNGGA,133702.00,1346.88349,N,10040.46050,E,2,12,0.91,1.3,M,-27.4,M,,0000*6C
$GNGSA,A,3,03,41,23,31,16,26,22,40,27,08,,,2.00,0.91,1.78,1*0A
$GNGSA,A,3,13,05,,,,,,,,,,,2.00,0.91,1.78,4*07
$GPGSV,4,1,15,03,34,249,39,08,44,181,31,09,13,324,,11,07,198,,0*6E
$GPGSV,4,2,15,14,26,134,,16,49,005,16,18,08,186,,22,33,223,33,0*65
$GPGSV,4,3,15,23,39,326,28,26,27,028,19,27,62,132,27,31,19,071,20,0*69
$GPGSV,4,4,15,32,06,140,,40,36,257,30,41,64,233,31,0*56
$GBGSV,3,1,09,01,43,105,,02,64,229,27,05,39,253,36,09,88,229,16,0*7B
$GBGSV,3,2,09,10,54,326,,13,17,175,28,16,66,157,,22,,,39,0*4B
$GBGSV,3,3,09,30,,,27,0*78
$GNGLL,1346.88349,N,10040.46050,E,133702.00,A,D*7A
$GNGST,133702.00,3586708,,,,4.1,3.0,11*52
$GNZDA,133702.00,19,11,2018,00,00*7F
$GNRMC,133703.00,A,1346.88359,N,10040.46050,E,0.039,,191118,,,D,V*12
$GNVTG,,T,,M,0.039,N,0.072,K,D*37
$GNGNS,133703.00,1346.88359,N,10040.46050,E,DNNA,12,0.91,0.7,-27.4,,0000,V*3F
$GNGGA,133703.00,1346.88359,N,10040.46050,E,2,12,0.91,0.7,M,-27.4,M,,0000*69
$GNGSA,A,3,03,41,23,31,16,26,22,40,27,08,,,2.00,0.91,1.78,1*0A
$GNGSA,A,3,13,05,,,,,,,,,,,2.00,0.91,1.78,4*07
$GPGSV,4,1,15,03,34,249,38,08,44,181,31,09,13,324,,11,07,198,,0*6F
$GPGSV,4,2,15,14,26,134,,16,49,005,18,18,08,186,,22,33,223,33,0*6B
$GPGSV,4,3,15,23,39,326,28,26,27,028,19,27,62,132,27,31,19,071,19,0*63
$GPGSV,4,4,15,32,06,140,,40,36,257,29,41,64,233,31,0*5E
$GBGSV,3,1,09,01,43,105,,02,64,229,,05,39,253,36,09,88,229,16,0*7E
$GBGSV,3,2,09,10,54,326,,13,17,175,28,16,66,157,,22,,,39,0*4B
$GBGSV,3,3,09,30,,,27,0*78
$GNGLL,1346.88359,N,10040.46050,E,133703.00,A,D*7A
$GNGST,133703.00,3586708,,,,4.1,3.0,11*53
$GNZDA,133703.00,19,11,2018,00,00*7E
$GNRMC,133704.00,A,1346.88368,N,10040.46048,E,0.058,,191118,,,D,V*19
$GNVTG,,T,,M,0.058,N,0.108,K,D*3C
$GNGNS,133704.00,1346.88368,N,10040.46048,E,DNNA,11,0.95,0.3,-27.4,,0000,V*30
$GNGGA,133704.00,1346.88368,N,10040.46048,E,2,11,0.95,0.3,M,-27.4,M,,0000*66
$GNGSA,A,3,03,41,23,31,26,22,40,27,08,,,,2.05,0.95,1.81,1*0A
$GNGSA,A,3,13,05,,,,,,,,,,,2.05,0.95,1.81,4*00
$GPGSV,4,1,15,03,34,249,39,08,44,181,32,09,13,324,,11,07,198,,0*6D
$GPGSV,4,2,15,14,26,134,,16,49,005,08,18,08,186,,22,33,223,33,0*6A
$GPGSV,4,3,15,23,39,326,28,26,27,028,19,27,62,132,27,31,19,071,19,0*63
$GPGSV,4,4,15,32,06,140,,40,36,257,30,41,64,233,31,0*56
$GBGSV,3,1,09,01,43,105,,02,64,229,,05,39,253,36,09,88,229,17,0*7F
$GBGSV,3,2,09,10,54,326,,13,17,175,29,16,66,157,,22,,,39,0*4A
$GBGSV,3,3,09,30,,,27,0*78
$GNGLL,1346.88368,N,10040.46048,E,133704.00,A,D*76
$GNGST,133704.00,1833,,,,4.0,3.0,11*6B
$GNZDA,133704.00,19,11,2018,00,00*79
$GNRMC,133705.00,A,1346.88378,N,10040.46047,E,0.026,,191118,,,D,V*1F
$GNVTG,,T,,M,0.026,N,0.048,K,D*30
$GNGNS,133705.00,1346.88378,N,10040.46047,E,DNNA,12,0.91,-0.3,-27.4,,0000,V*15
$GNGGA,133705.00,1346.88378,N,10040.46047,E,2,12,0.91,-0.3,M,-27.4,M,,0000*43
$GNGSA,A,3,03,41,23,31,16,26,22,40,27,08,,,2.00,0.91,1.78,1*0A
$GNGSA,A,3,13,05,,,,,,,,,,,2.00,0.91,1.78,4*07
$GPGSV,4,1,15,03,34,249,39,08,44,181,33,09,13,324,,11,07,198,,0*6C
$GPGSV,4,2,15,14,26,134,,16,49,005,11,18,08,186,,22,33,223,33,0*62
$GPGSV,4,3,15,23,39,326,28,26,27,028,18,27,62,132,28,31,19,071,20,0*67
$GPGSV,4,4,15,32,06,140,,40,36,257,30,41,64,233,31,0*56
$GBGSV,3,1,09,01,43,105,,02,64,229,,05,39,253,36,09,88,229,16,0*7E
$GBGSV,3,2,09,10,54,326,,13,17,175,29,16,66,157,,22,,,39,0*4A
$GBGSV,3,3,09,30,,,27,0*78
$GNGLL,1346.88378,N,10040.46047,E,133705.00,A,D*79
$GNGST,133705.00,1748,,,,4.0,3.0,11*69
$GNZDA,133705.00,19,11,2018,00,00*78
$GNRMC,133706.00,A,1346.88392,N,10040.46050,E,0.100,,191118,,,D,V*1B
$GNVTG,,T,,M,0.100,N,0.186,K,D*36
$GNGNS,133706.00,1346.88392,N,10040.46050,E,DNNA,12,0.91,-0.9,-27.4,,0000,V*1E
$GNGGA,133706.00,1346.88392,N,10040.46050,E,2,12,0.91,-0.9,M,-27.4,M,,0000*48
$GNGSA,A,3,03,41,23,31,16,26,22,40,27,08,,,2.00,0.91,1.78,1*0A
$GNGSA,A,3,13,05,,,,,,,,,,,2.00,0.91,1.78,4*07
$GPGSV,4,1,15,03,34,249,39,08,44,181,32,09,13,324,,11,07,198,,0*6D
$GPGSV,4,2,15,14,26,134,,16,49,005,15,18,08,186,,22,32,223,33,0*67
$GPGSV,4,3,15,23,39,326,28,26,27,028,18,27,62,132,28,31,19,071,20,0*67
$GPGSV,4,4,15,32,06,140,,40,36,257,30,41,64,233,31,0*56
$GBGSV,3,1,09,01,43,105,,02,64,229,,05,39,253,36,09,88,229,16,0*7E
$GBGSV,3,2,09,10,54,326,,13,17,175,29,16,66,157,,22,,,39,0*4A
$GBGSV,3,3,09,30,,,28,0*77
$GNGLL,1346.88392,N,10040.46050,E,133706.00,A,D*78
$GNGST,133706.00,1748,,,,4.0,3.0,11*6A
$GNZDA,133706.00,19,11,2018,00,00*7B
$GNRMC,133707.00,A,1346.88400,N,10040.46054,E,0.059,,191118,,,D,V*1F
$GNVTG,,T,,M,0.059,N,0.109,K,D*3C
$GNGNS,133707.00,1346.88400,N,10040.46054,E,DNNA,12,0.91,-1.5,-27.4,,0000,V*1A
$GNGGA,133707.00,1346.88400,N,10040.46054,E,2,12,0.91,-1.5,M,-27.4,M,,0000*4C
$GNGSA,A,3,03,41,23,31,16,26,22,40,27,08,,,2.00,0.91,1.78,1*0A
$GNGSA,A,3,13,05,,,,,,,,,,,2.00,0.91,1.78,4*07
$GPGSV,4,1,15,03,34,249,39,08,44,181,32,09,13,324,,11,07,198,,0*6D
$GPGSV,4,2,15,14,26,134,,16,49,005,16,18,08,186,,22,32,223,33,0*64
$GPGSV,4,3,15,23,39,326,28,26,27,028,18,27,62,132,27,31,19,071,22,0*6A
$GPGSV,4,4,15,32,06,140,,40,36,257,30,41,64,233,32,0*55
$GBGSV,3,1,09,01,43,105,,02,64,229,,05,39,253,36,09,88,229,14,0*7C
$GBGSV,3,2,09,10,54,326,,13,17,175,29,16,66,157,,22,,,39,0*4A
$GBGSV,3,3,09,30,,,28,0*77
$GNGLL,1346.88400,N,10040.46054,E,133707.00,A,D*71
$GNGST,133707.00,1748,,,,4.0,3.0,11*6B
$GNZDA,133707.00,19,11,2018,00,00*7A
$GNRMC,133708.00,A,1346.88405,N,10040.46054,E,0.041,,191118,,,D,V*1C
$GNVTG,,T,,M,0.041,N,0.076,K,D*3C
$GNGNS,133708.00,1346.88405,N,10040.46054,E,DNNA,12,0.91,-2.0,-27.4,,0000,V*16
$GNGGA,133708.00,1346.88405,N,10040.46054,E,2,12,0.91,-2.0,M,-27.4,M,,0000*40
$GNGSA,A,3,03,41,23,31,16,26,22,40,27,08,,,2.00,0.91,1.78,1*0A
$GNGSA,A,3,13,05,,,,,,,,,,,2.00,0.91,1.78,4*07
$GPGSV,4,1,15,03,34,249,39,08,44,181,32,09,13,324,,11,07,198,,0*6D
$GPGSV,4,2,15,14,26,134,,16,49,005,15,18,08,186,,22,32,223,33,0*67
$GPGSV,4,3,15,23,39,326,29,26,27,028,18,27,62,132,27,31,19,071,22,0*6B
$GPGSV,4,4,15,32,06,140,,40,36,257,30,41,64,233,31,0*56
7E
$GBGSV,3,2,09,10,54,326,,13,17,175,29,16,66,157,,22,,,39,0*4A
$GBGSV,3,3,09,30,,,28,0*77
$GNGLL,1346.88405,N,10040.46054,E,133708.00,A,D*7B
$GNGST,133708.00,1748,,,,3.9,3.1,11*6B
$GNZDA,133708.00,19,11,2018,00,00*75
$GNRMC,133709.00,A,1346.88409,N,10040.46057,E,0.107,,191118,,,D,V*11
$GNVTG,,T,,M,0.107,N,0.198,K,D*3E
$GNGNS,133709.00,1346.88409,N,10040.46057,E,DNNA,12,0.91,-2.4,-27.4,,0000,V*1C
$GNGGA,133709.00,1346.88409,N,10040.46057,E,2,12,0.91,-2.4,M,-27.4,M,,0000*4A
$GNGSA,A,3,03,41,23,31,16,26,22,40,27,08,,,2.00,0.91,1.78,1*0A
$GNGSA,A,3,13,05,,,,,,,,,,,2.00,0.91,1.78,4*07
$GPGSV,4,1,15,03,34,249,38,08,44,181,33,09,13,324,,11,07,198,,0*6D
$GPGSV,4,2,15,14,26,134,,16,49,005,15,18,08,186,,22,32,223,33,0*67
$GPGSV,4,3,15,23,39,326,28,26,27,028,18,27,62,132,27,31,19,071,22,0*6A
$GPGSV,4,4,15,32,06,140,,40,36,257,30,41,64,233,31,0*56
$GBGSV,3,1,09,01,43,105,,02,64,229,,05,39,253,36,09,88,229,15,0*7D
$GBGSV,3,2,09,10,54,326,,13,17,175,29,16,66,157,,22,,,39,0*4A
$GBGSV,3,3,09,30,,,28,0*77
$GNGLL,1346.88409,N,10040.46057,E,133709.00,A,D*75
$GNGST,133709.00,1748,,,,3.9,3.1,10*6B
$GNZDA,133709.00,19,11,2018,00,00*74
$GNRMC,133710.00,A,1346.88415,N,10040.46058,E,0.022,,191118,,,D,V*1D
$GNVTG,,T,,M,0.022,N,0.041,K,D*3D
$GNGNS,133710.00,1346.88415,N,10040.46058,E,DNNA,12,0.91,-2.8,-27.4,,0000,V*1A
$GNGGA,133710.00,1346.88415,N,10040.46058,E,2,12,0.91,-2.8,M,-27.4,M,,0000*4C
$GNGSA,A,3,03,41,23,31,16,26,22,40,27,08,,,2.00,0.91,1.78,1*0A
$GNGSA,A,3,13,05,,,,,,,,,,,2.00,0.91,1.78,4*07
$GPGSV,4,1,15,03,34,249,38,08,44,181,32,09,13,324,,11,07,198,,0*6C
$GPGSV,4,2,15,14,26,134,,16,49,005,16,18,08,186,,22,32,223,33,0*64
$GPGSV,4,3,15,23,39,326,28,26,27,028,19,27,62,132,26,31,19,071,22,0*6A
$GPGSV,4,4,15,32,06,140,,40,36,257,30,41,64,233,32,0*55
$GBGSV,3,1,09,01,43,105,,02,64,229,,05,39,253,36,09,88,229,14,0*7C
$GBGSV,3,2,09,10,54,326,,13,17,175,29,16,66,157,,22,,,39,0*4A
$GBGSV,3,3,09,30,,,28,0*77
$GNGLL,1346.88415,N,10040.46058,E,133710.00,A,D*7F
$GNGST,133710.00,1748,,,,3.9,3.1,11*62
$GNZDA,133710.00,19,11,2018,00,00*7C
$GNRMC,133711.00,A,1346.88419,N,10040.46056,E,0.023,,191118,,,D,V*1F
$GNVTG,,T,,M,0.023,N,0.043,K,D*3E
$GNGNS,133711.00,1346.88419,N,10040.46056,E,DNNA,12,0.91,-3.1,-27.4,,0000,V*11
$GNGGA,133711.00,1346.88419,N,10040.46056,E,2,12,0.91,-3.1,M,-27.4,M,,0000*47
$GNGSA,A,3,03,41,23,31,16,26,22,40,27,08,,,2.00,0.91,1.78,1*0A
$GNGSA,A,3,13,05,,,,,,,,,,,2.00,0.91,1.78,4*07
$GPGSV,4,1,15,03,34,249,38,08,44,181,32,09,13,324,,11,07,198,,0*6C
$GPGSV,4,2,15,14,26,134,,16,49,005,17,18,08,186,,22,32,223,33,0*65
$GPGSV,4,3,15,23,39,326,29,26,27,028,18,27,62,131,26,31,19,071,22,0*69
$GPGSV,4,4,15,32,06,140,,40,36,257,30,41,64,233,32,0*55
$GBGSV,3,1,09,01,43,105,,02,64,229,,05,39,253,36,09,88,229,14,0*7C
$GBGSV,3,2,09,10,54,326,,13,17,175,29,16,66,157,,22,,,39,0*4A
$GBGSV,3,3,09,30,,,28,0*77
$GNGLL,1346.88419,N,10040.46056,E,133711.00,A,D*7C
$GNGST,133711.00,1748,,,,3.9,3.1,11*63
$GNZDA,133711.00,19,11,2018,00,00*7D
$GNRMC,133712.00,A,1346.88427,N,10040.46060,E,0.033,,191118,,,D,V*15
$GNVTG,,T,,M,0.033,N,0.061,K,D*3F
$GNGNS,133712.00,1346.88427,N,10040.46060,E,DNNA,12,0.91,-3.5,-27.4,,0000,V*1E
$GNGGA,133712.00,1346.88427,N,10040.46060,E,2,12,0.91,-3.5,M,-27.4,M,,0000*48
$GNGSA,A,3,03,41,23,31,16,26,22,40,27,08,,,2.00,0.91,1.78,1*0A
$GNGSA,A,3,13,05,,,,,,,,,,,2.00,0.91,1.78,4*07
$GPGSV,4,1,15,03,34,249,38,08,44,181,32,09,13,324,,11,07,198,,0*6C
$GPGSV,4,2,15,14,26,134,,16,49,005,17,18,08,186,,22,32,223,33,0*65
$GPGSV,4,3,15,23,39,326,29,26,27,028,18,27,62,131,25,31,19,071,23,0*6B
$GPGSV,4,4,15,32,06,140,,40,36,257,30,41,64,233,31,0*56
$GBGSV,3,1,09,01,43,105,,02,64,229,,05,39,253,36,09,88,229,15,0*7D
$GBGSV,3,2,09,10,54,326,,13,17,175,29,16,66,157,,22,,,39,0*4A
$GBGSV,3,3,09,30,,,28,0*77
$GNGLL,1346.88427,N,10040.46060,E,133712.00,A,D*77
$GNGST,133712.00,1748,,,,3.9,3.1,11*60
$GNZDA,133712.00,19,11,2018,00,00*7E
$GNRMC,133713.00,A,1346.88435,N,10040.46064,E,0.159,,191118,,,D,V*1E
$GNVTG,,T,,M,0.159,N,0.294,K,D*3A
$GNGNS,133713.00,1346.88435,N,10040.46064,E,DNNA,12,0.91,-3.9,-27.4,,0000,V*14
$GNGGA,133713.00,1346.88435,N,10040.46064,E,2,12,0.91,-3.9,M,-27.4,M,,0000*42
$GNGSA,A,3,03,41,23,31,16,26,22,40,27,08,,,2.00,0.91,1.78,1*0A
$GNGSA,A,3,13,05,,,,,,,,,,,2.00,0.91,1.78,4*07
$GPGSV,4,1,15,03,34,249,38,08,44,181,33,09,13,324,,11,07,198,,0*6D
$GPGSV,4,2,15,14,26,134,,16,49,005,17,18,08,186,,22,32,223,33,0*65
$GPGSV,4,3,15,23,39,326,29,26,27,028,18,27,62,131,25,31,19,071,23,0*6B
$GPGSV,4,4,15,32,06,140,,40,36,257,30,41,64,233,31,0*56
$GBGSV,3,1,09,01,43,105,,02,64,229,,05,39,253,36,09,88,229,15,0*7D
$GBGSV,3,2,09,10,54,326,,13,17,175,29,16,66,157,,22,,,39,0*4A
$GBGSV,3,3,09,30,,,28,0*77
$GNGLL,1346.88435,N,10040.46064,E,133713.00,A,D*71
$GNGST,133713.00,1748,,,,3.8,3.1,11*60
$GNZDA,133713.00,19,11,2018,00,00*7F
$GNRMC,133714.00,A,1346.88443,N,10040.46067,E,0.120,,191118,,,D,V*15
$GNVTG,,T,,M,0.120,N,0.222,K,D*39
$GNGNS,133714.00,1346.88443,N,10040.46067,E,DNNA,12,0.91,-4.2,-27.4,,0000,V*1D
$GNGGA,133714.00,1346.88443,N,10040.46067,E,2,12,0.91,-4.2,M,-27.4,M,,0000*4B
$GNGSA,A,3,03,41,23,31,16,26,22,40,27,08,,,2.00,0.91,1.78,1*0A
$GNGSA,A,3,13,05,,,,,,,,,,,2.00,0.91,1.78,4*07
$GPGSV,4,1,15,03,34,249,38,08,44,181,33,09,13,324,,11,07,198,,0*6D
$GPGSV,4,2,15,14,26,134,,16,49,005,16,18,08,186,,22,32,223,33,0*64
$GPGSV,4,3,15,23,39,326,29,26,27,028,18,27,62,131,24,31,19,071,22,0*6B
$GPGSV,4,4,15,32,06,140,,40,36,257,30,41,64,233,31,0*56
$GBGSV,3,1,09,01,43,105,,02,64,229,,05,39,253,36,09,88,229,15,0*7D
$GBGSV,3,2,09,10,54,326,,13,17,175,29,16,66,157,,22,,,39,0*4A
$GBGSV,3,3,09,30,,,28,0*77
$GNGLL,1346.88443,N,10040.46067,E,133714.00,A,D*74
$GNGST,133714.00,1748,,,,3.8,3.2,11*64
$GNZDA,133714.00,19,11,2018,00,00*78
$GNRMC,133715.00,A,1346.88449,N,10040.46070,E,0.062,,191118,,,D,V*1F
$GNVTG,,T,,M,0.062,N,0.115,K,D*39
$GNGNS,133715.00,1346.88449,N,10040.46070,E,DNNA,12,0.91,-4.5,-27.4,,0000,V*17
$GNGGA,133715.00,1346.88449,N,10040.46070,E,2,12,0.91,-4.5,M,-27.4,M,,0000*41
$GNGSA,A,3,03,41,23,31,16,26,22,40,27,08,,,2.00,0.91,1.78,1*0A
$GNGSA,A,3,13,05,,,,,,,,,,,2.00,0.91,1.78,4*07
$GPGSV,4,1,15,03,34,249,38,08,44,181,33,09,13,324,,11,07,198,,0*6D
$GPGSV,4,2,15,14,26,134,,16,49,005,18,18,08,186,,22,32,223,33,0*6A
$GPGSV,4,3,15,23,39,326,29,26,27,028,19,27,62,131,24,31,19,071,22,0*6A
$GPGSV,4,4,15,32,06,140,,40,36,257,30,41,64,233,31,0*56
$GBGSV,3,1,09,01,43,105,,02,64,229,,05,39,253,36,09,88,229,15,0*7D
$GBGSV,3,2,09,10,54,326,,13,17,175,29,16,66,157,,22,,,39,0*4A
$GBGSV,3,3,09,30,,,28,0*77
$GNGLL,1346.88449,N,10040.46070,E,133715.00,A,D*79
$GNGST,133715.00,1748,,,,3.8,3.2,11*65
$GNZDA,133715.00,19,11,2018,00,00*79
$GNRMC,133716.00,A,1346.88453,N,10040.46072,E,0.100,,191118,,,D,V*10
$GNVTG,,T,,M,0.100,N,0.186,K,D*36
$GNGNS,133716.00,1346.88453,N,10040.46072,E,DNNA,12,0.91,-4.8,-27.4,,0000,V*10
$GNGGA,133716.00,1346.88453,N,10040.46072,E,2,12,0.91,-4.8,M,-27.4,M,,0000*46
$GNGSA,A,3,03,41,23,31,16,26,22,40,27,08,,,2.00,0.91,1.78,1*0A
$GNGSA,A,3,13,05,,,,,,,,,,,2.00,0.91,1.78,4*07
$GPGSV,4,1,15,03,34,249,38,08,44,181,33,09,13,324,,11,07,198,,0*6D
$GPGSV,4,2,15,14,26,134,,16,49,005,19,18,08,186,,22,32,223,33,0*6B
$GPGSV,4,3,15,23,39,326,29,26,27,028,19,27,62,131,23,31,19,071,22,0*6D
$GPGSV,4,4,15,32,06,140,,40,36,257,30,41,64,233,31,0*56
$GBGSV,3,1,09,01,43,105,,02,64,229,,05,39,253,36,09,88,229,15,0*7D
$GBGSV,3,2,09,10,54,326,,13,17,175,29,16,66,157,,22,,,39,0*4A
$GBGSV,3,3,09,30,,,28,0*77
$GNGLL,1346.88453,N,10040.46072,E,133716.00,A,D*73
$GNGST,133716.00,1748,,,,3.8,3.2,11*66
$GNZDA,133716.00,19,11,2018,00,00*7A
$GNRMC,133717.00,A,1346.88458,N,10040.46074,E,0.076,,191118,,,D,V*1C
$GNVTG,,T,,M,0.076,N,0.141,K,D*3D
$GNGNS,133717.00,1346.88458,N,10040.46074,E,DNNA,12,0.91,-5.0,-27.4,,0000,V*15
$GNGGA,133717.00,1346.88458,N,10040.46074,E,2,12,0.91,-5.0,M,-27.4,M,,0000*43
$GNGSA,A,3,03,41,23,31,16,26,22,40,27,08,,,2.00,0.91,1.78,1*0A
$GNGSA,A,3,13,05,,,,,,,,,,,2.00,0.91,1.78,4*07
$GPGSV,4,1,15,03,34,249,38,08,44,181,32,09,13,324,,11,07,198,,0*6C
$GPGSV,4,2,15,14,26,134,,16,49,005,19,18,08,186,,22,32,223,33,0*6B
$GPGSV,4,3,15,23,39,326,29,26,27,028,19,27,62,131,23,31,19,071,22,0*6D
$GPGSV,4,4,15,32,06,140,,40,36,257,30,41,64,233,31,0*56
$GBGSV,3,1,09,01,43,105,,02,64,229,,05,39,253,36,09,88,229,14,0*7C
$GBGSV,3,2,09,10,54,326,,13,17,175,29,16,66,157,,22,,,39,0*4A
$GBGSV,3,3,09,30,,,28,0*77
$GNGLL,1346.88458,N,10040.46074,E,133717.00,A,D*7F
$GNGST,133717.00,1748,,,,3.7,3.2,11*68
$GNZDA,133717.00,19,11,2018,00,00*7B
$GNRMC,133718.00,A,1346.88461,N,10040.46075,E,0.071,,191118,,,D,V*1F
$GNVTG,,T,,M,0.071,N,0.131,K,D*3D
$GNGNS,133718.00,1346.88461,N,10040.46075,E,DNNA,12,0.91,-5.3,-27.4,,0000,V*12
$GNGGA,133718.00,1346.88461,N,10040.46075,E,2,12,0.91,-5.3,M,-27.4,M,,0000*44
$GNGSA,A,3,03,41,23,31,16,26,22,40,27,08,,,2.00,0.91,1.78,1*0A
$GNGSA,A,3,13,05,,,,,,,,,,,2.00,0.91,1.78,4*07
$GPGSV,4,1,15,03,34,249,38,08,44,181,32,09,13,324,,11,07,198,,0*6C
$GPGSV,4,2,15,14,26,134,,16,49,005,18,18,08,186,,22,32,223,33,0*6A
$GPGSV,4,3,15,23,39,326,29,26,27,028,19,27,62,131,22,31,19,071,23,0*6D
$GPGSV,4,4,15,32,06,140,,40,36,257,30,41,64,233,31,0*56
$GBGSV,3,1,09,01,43,105,,02,64,229,,05,39,253,36,09,88,229,14,0*7C
$GBGSV,3,2,09,10,54,326,,13,17,175,29,16,66,157,,22,,,39,0*4A
$GBGSV,3,3,09,30,,,28,0*77
$GNGLL,1346.88461,N,10040.46075,E,133718.00,A,D*7B
$GNGST,133718.00,1748,,,,3.7,3.2,11*67
$GNZDA,133718.00,19,11,2018,00,00*74
$GNRMC,133719.00,A,1346.88462,N,10040.46077,E,0.120,,191118,,,D,V*1A
$GNVTG,,T,,M,0.120,N,0.222,K,D*39
$GNGNS,133719.00,1346.88462,N,10040.46077,E,DNNA,12,0.91,-5.5,-27.4,,0000,V*14
$GNGGA,133719.00,1346.88462,N,10040.46077,E,2,12,0.91,-5.5,M,-27.4,M,,0000*42
$GNGSA,A,3,03,41,23,31,16,26,22,40,27,08,,,2.00,0.91,1.78,1*0A
$GNGSA,A,3,13,05,,,,,,,,,,,2.00,0.91,1.78,4*07
$GPGSV,4,1,15,03,34,249,38,08,44,181,32,09,13,324,,11,07,198,,0*6C
$GPGSV,4,2,15,14,26,134,,16,49,005,18,18,08,186,,22,32,223,33,0*6A
$GPGSV,4,3,15,23,39,326,30,26,27,028,20,27,62,131,22,31,19,071,23,0*6F
$GPGSV,4,4,15,32,06,140,,40,36,257,30,41,64,233,31,0*56
$GBGSV,3,1,09,01,43,105,,02,64,229,,05,39,253,36,09,88,229,15,0*7D
$GBGSV,3,2,09,10,54,326,,13,17,175,30,16,66,157,,22,,,39,0*42
$GBGSV,3,3,09,30,,,27,0*78
$GNGLL,1346.88462,N,10040.46077,E,133719.00,A,D*7B
$GNGST,133719.00,1748,,,,3.7,3.2,11*66
$GNZDA,133719.00,19,11,2018,00,00*75
$GNRMC,133720.00,A,1346.88463,N,10040.46082,E,0.129,,191118,,,D,V*12
$GNVTG,,T,,M,0.129,N,0.239,K,D*3A
$GNGNS,133720.00,1346.88463,N,10040.46082,E,DNNA,12,0.91,-5.6,-27.4,,0000,V*16
$GNGGA,133720.00,1346.88463,N,10040.46082,E,2,12,0.91,-5.6,M,-27.4,M,,0000*40
$GNGSA,A,3,03,41,23,31,16,26,22,40,27,08,,,2.00,0.91,1.78,1*0A
$GNGSA,A,3,13,05,,,,,,,,,,,2.00,0.91,1.78,4*07
$GPGSV,4,1,15,03,34,249,38,08,44,181,32,09,13,324,,11,07,198,,0*6C
$GPGSV,4,2,15,14,26,134,,16,49,005,18,18,08,186,,22,32,223,34,0*6D
$GPGSV,4,3,15,23,39,326,30,26,27,028,20,27,62,131,22,31,19,071,23,0*6F
$GPGSV,4,4,15,32,06,140,,40,36,257,30,41,64,233,31,0*56
$GBGSV,3,1,09,01,43,105,,02,64,229,,05,39,253,36,09,88,229,17,0*7F
$GBGSV,3,2,09,10,54,326,,13,17,175,30,16,66,157,,22,,,39,0*42
$GBGSV,3,3,09,30,,,28,0*77
$GNGLL,1346.88463,N,10040.46082,E,133720.00,A,D*7A
$GNGST,133720.00,1748,,,,3.7,3.3,11*6D
$GNZDA,133720.00,19,11,2018,00,00*7F
$GNRMC,133721.00,A,1346.88467,N,10040.46085,E,0.157,,191118,,,D,V*19
$GNVTG,,T,,M,0.157,N,0.291,K,D*31
$GNGNS,133721.00,1346.88467,N,10040.46085,E,DNNA,12,0.91,-5.7,-27.4,,0000,V*15
$GNGGA,133721.00,1346.88467,N,10040.46085,E,2,12,0.91,-5.7,M,-27.4,M,,0000*43
$GNGSA,A,3,03,41,23,31,16,26,22,40,27,08,,,2.00,0.91,1.78,1*0A
$GNGSA,A,3,13,05,,,,,,,,,,,2.00,0.91,1.78,4*07
$GPGSV,4,1,15,03,34,249,38,08,44,181,31,09,13,324,,11,07,198,,0*6F
$GPGSV,4,2,15,14,26,134,,16,49,005,17,18,08,186,,22,32,223,34,0*62
$GPGSV,4,3,15,23,39,326,30,26,27,028,20,27,62,131,22,31,19,071,23,0*6F
$GPGSV,4,4,15,32,06,140,,40,36,257,30,41,64,233,31,0*56
$GBGSV,3,1,10,01,43,105,,02,64,229,,03,70,144,,05,39,253,36,0*74
$GBGSV,3,2,10,09,88,229,16,10,54,326,,13,17,175,29,16,66,157,,0*7F
$GBGSV,3,3,10,22,,,39,30,,,28,0*75
$GNGLL,1346.88467,N,10040.46085,E,133721.00,A,D*78
$GNGST,133721.00,1748,,,,3.7,3.3,11*6C
$GNZDA,133721.00,19,11,2018,00,00*7E
$GNRMC,133722.00,A,1346.88468,N,10040.46080,E,0.150,,191118,,,D,V*17
$GNVTG,,T,,M,0.150,N,0.278,K,D*31
$GNGNS,133722.00,1346.88468,N,10040.46080,E,DNNA,12,0.91,-5.8,-27.4,,0000,V*13
$GNGGA,133722.00,1346.88468,N,10040.46080,E,2,12,0.91,-5.8,M,-27.4,M,,0000*45
$GNGSA,A,3,03,41,23,31,16,26,22,40,27,08,,,2.00,0.91,1.78,1*0A
$GNGSA,A,3,13,05,,,,,,,,,,,2.00,0.91,1.78,4*07
$GPGSV,4,1,15,03,34,249,38,08,44,181,32,09,13,324,,11,07,198,,0*6C
$GPGSV,4,2,15,14,26,134,,16,49,005,16,18,08,186,,22,32,223,34,0*63
$GPGSV,4,3,15,23,39,326,30,26,27,028,20,27,62,131,22,31,19,071,23,0*6F
$GPGSV,4,4,15,32,06,140,,40,36,257,30,41,64,233,31,0*56
$GBGSV,3,1,10,01,43,105,,02,64,229,,03,70,144,,05,39,253,36,0*74
$GBGSV,3,2,10,09,88,229,15,10,54,326,,13,17,175,29,16,66,157,,0*7C
$GBGSV,3,3,10,22,,,39,30,,,27,0*7A
$GNGLL,1346.88468,N,10040.46080,E,133722.00,A,D*71
$GNGST,133722.00,1748,,,,3.6,3.3,11*6E
$GNZDA,133722.00,19,11,2018,00,00*7D
$GNRMC,133723.00,A,1346.88470,N,10040.46083,E,0.031,,191118,,,D,V*1A
$GNVTG,,T,,M,0.031,N,0.058,K,D*37
$GNGNS,133723.00,1346.88470,N,10040.46083,E,DNNA,12,0.91,-6.0,-27.4,,0000,V*13
$GNGGA,133723.00,1346.88470,N,10040.46083,E,2,12,0.91,-6.0,M,-27.4,M,,0000*45
$GNGSA,A,3,03,41,23,31,16,26,22,40,27,08,,,2.00,0.91,1.78,1*0A
$GNGSA,A,3,13,05,,,,,,,,,,,2.00,0.91,1.78,4*07
$GPGSV,4,1,15,03,34,249,38,08,44,181,32,09,13,324,,11,07,198,,0*6C
$GPGSV,4,2,15,14,26,134,,16,49,005,15,18,08,186,,22,32,223,34,0*60
$GPGSV,4,3,15,23,39,326,30,26,27,028,20,27,62,131,21,31,19,071,24,0*6B
$GPGSV,4,4,15,32,06,140,,40,36,257,30,41,64,233,32,0*55
$GBGSV,3,1,10,01,43,105,,02,64,229,,03,70,144,,05,39,253,36,0*74
$GBGSV,3,2,10,09,88,229,14,10,54,326,,13,17,175,29,16,66,157,,0*7D
$GBGSV,3,3,10,22,,,39,30,,,28,0*75
$GNGLL,1346.88470,N,10040.46083,E,133723.00,A,D*7A
$GNGST,133723.00,1748,,,,3.6,3.3,11*6F
$GNZDA,133723.00,19,11,2018,00,00*7C
$GNRMC,133724.00,A,1346.88473,N,10040.46089,E,0.134,,191118,,,D,V*10
$GNVTG,,T,,M,0.134,N,0.247,K,D*3F
$GNGNS,133724.00,1346.88473,N,10040.46089,E,DNNA,12,0.91,-5.9,-27.4,,0000,V*17
$GNGGA,133724.00,1346.88473,N,10040.46089,E,2,12,0.91,-5.9,M,-27.4,M,,0000*41
$GNGSA,A,3,03,41,23,31,16,26,22,40,27,08,,,2.00,0.91,1.78,1*0A
$GNGSA,A,3,13,05,,,,,,,,,,,2.00,0.91,1.78,4*07
$GPGSV,4,1,15,03,34,249,38,08,44,181,32,09,13,324,,11,07,198,,0*6C
$GPGSV,4,2,15,14,26,134,,16,49,005,15,18,08,186,,22,32,223,33,0*67
$GPGSV,4,3,15,23,39,326,31,26,27,028,20,27,62,131,21,31,19,071,24,0*6A
$GPGSV,4,4,15,32,06,140,,40,36,257,30,41,64,233,31,0*56
$GBGSV,3,1,10,01,43,105,,02,64,229,,03,70,144,,05,39,253,36,0*74
$GBGSV,3,2,10,09,88,229,13,10,54,326,,13,17,175,29,16,66,157,,0*7A
$GBGSV,3,3,10,22,,,39,30,,,28,0*75
$GNGLL,1346.88473,N,10040.46089,E,133724.00,A,D*74
$GNGST,133724.00,1748,,,,3.6,3.3,11*68
$GNZDA,133724.00,19,11,2018,00,00*7B
$GNRMC,133725.00,A,1346.88474,N,10040.46090,E,0.157,,191118,,,D,V*1B
$GNVTG,,T,,M,0.157,N,0.291,K,D*31
$GNGNS,133725.00,1346.88474,N,10040.46090,E,DNNA,12,0.91,-5.9,-27.4,,0000,V*19
