$GNRMC,021952.00,A,0641.64247,N,10137.05997,E,0.005,,150419,,,D*6D
$GNVTG,,T,,M,0.005,N,0.009,K,D*34
$GNGGA,021952.00,0641.64247,N,10137.05997,E,2,12,0.56,31.4,M,-13.0,M,,0000*53
$GNGSA,A,3,03,16,26,22,31,32,18,14,27,08,41,40,1.07,0.56,0.92*11
$GNGSA,A,3,75,70,71,72,73,74,84,,,,,,1.07,0.56,0.92*1F
$GPGSV,4,1,16,01,04,241,,03,35,296,44,08,18,195,31,10,06,154,*78
$GPGSV,4,2,16,11,00,223,,14,48,084,36,16,73,304,42,18,11,216,31*77
$GPGSV,4,3,16,22,47,271,36,23,05,325,,26,51,008,38,27,40,166,39*72
$GPGSV,4,4,16,31,21,035,37,32,39,107,42,40,36,264,39,41,67,251,51*7B
$GLGSV,3,1,10,65,02,334,,70,25,156,26,71,79,160,35,72,45,333,24*6D
$GLGSV,3,2,10,73,06,026,09,74,28,346,32,75,27,284,17,76,04,247,*68
$GLGSV,3,3,10,84,14,103,31,85,14,158,22*69
$GNGLL,0641.64247,N,10137.05997,E,021952.00,A,D*79
$GNTXT,01,01,02,u-blox AG - www.u-blox.com*4E
$GNTXT,01,01,02,HW UBX-M8030 00080000*60
$GNTXT,01,01,02,ROM CORE 3.01 (107888)*2B
$GNTXT,01,01,02,FWVER=SPG 3.01*46
$GNTXT,01,01,02,PROTVER=18.00*11
$GNTXT,01,01,02,GPS;GLO;GAL;BDS*77
$GNTXT,01,01,02,SBAS;IMES;QZSS*49
$GNTXT,01,01,02,GNSS OTP=GPS;GLO*37
$GNTXT,01,01,02,LLC=FFFFFFFF-FFFFFFFF-FFFFFFFF-FFFFFFFF-FFFFFFFD*2F
$GNTXT,01,01,02,ANTSUPERV=AC SD PDoS SR*3E
$GNTXT,01,01,02,ANTSTATUS=OK*25
$GNTXT,01,01,02,PF=3FF*4B
$GNRMC,021953.00,A,0641.64241,N,10137.05999,E,0.007,,150419,,,D*66
$GNVTG,,T,,M,0.007,N,0.012,K,D*3C
$GNGGA,021953.00,0641.64241,N,10137.05999,E,2,12,0.56,31.2,M,-13.0,M,,0000*5C
$GNGSA,A,3,03,16,26,22,31,32,18,14,27,08,41,40,1.07,0.56,0.92*11
$GNGSA,A,3,75,70,71,72,73,74,84,,,,,,1.07,0.56,0.92*1F
$GPGSV,4,1,16,01,04,241,,03,35,296,44,08,18,195,31,10,06,154,*78
$GPGSV,4,2,16,11,00,223,,14,48,084,35,16,73,304,42,18,11,216,30*75
$GPGSV,4,3,16,22,47,271,36,23,05,325,,26,51,008,38,27,40,166,39*72
$GPGSV,4,4,16,31,21,035,37,32,39,107,42,40,36,264,38,41,67,251,51*7A
$GLGSV,3,1,10,65,02,334,,70,25,156,26,71,79,160,35,72,45,333,23*6A
$GLGSV,3,2,10,73,06,026,08,74,28,346,31,75,27,284,16,76,04,247,*6B
$GLGSV,3,3,10,84,14,103,31,85,14,157,22*66
$GNGLL,0641.64241,N,10137.05999,E,021953.00,A,D*70
$GNRMC,021954.00,A,0641.64237,N,10137.06002,E,0.020,,150419,,,D*6D
$GNVTG,,T,,M,0.020,N,0.037,K,D*3E
$GNGGA,021954.00,0641.64237,N,10137.06002,E,2,12,0.59,31.0,M,-13.0,M,,0000*5F
$GNGSA,A,3,03,16,26,22,31,32,18,14,27,08,41,40,1.19,0.59,1.03*18
$GNGSA,A,3,75,70,71,72,73,74,84,,,,,,1.19,0.59,1.03*16
$GPGSV,4,1,16,01,04,241,,03,35,296,44,08,18,195,31,10,06,154,*78
$GPGSV,4,2,16,11,00,223,,14,48,084,35,16,73,304,42,18,11,216,30*75
$GPGSV,4,3,16,22,47,271,36,23,05,325,,26,51,008,37,27,40,166,39*7D
$GPGSV,4,4,16,31,21,035,36,32,39,107,42,40,36,264,38,41,67,251,51*7B
$GLGSV,3,1,10,65,02,334,,70,25,156,26,71,79,160,34,72,45,333,22*6A
$GLGSV,3,2,10,73,06,026,11,74,28,346,32,75,27,284,16,76,04,247,*60
$GLGSV,3,3,10,84,14,103,31,85,14,157,22*66
$GNGLL,0641.64237,N,10137.06002,E,021954.00,A,D*7E
$GNRMC,021955.00,A,0641.64233,N,10137.06003,E,0.009,,150419,,,D*62
$GNVTG,,T,,M,0.009,N,0.018,K,D*38
$GNGGA,021955.00,0641.64233,N,10137.06003,E,2,12,0.55,30.8,M,-13.0,M,,0000*5E
$GNGSA,A,3,03,16,26,22,31,32,18,14,27,08,41,40,1.06,0.55,0.91*10
$GNGSA,A,3,75,70,71,72,73,74,84,,,,,,1.06,0.55,0.91*1E
$GPGSV,4,1,16,01,04,241,,03,35,296,44,08,18,195,31,10,06,154,*78
$GPGSV,4,2,16,11,00,223,,14,48,084,35,16,73,304,42,18,11,216,30*75
$GPGSV,4,3,16,22,47,271,36,23,05,325,,26,51,008,37,27,40,166,39*7D
$GPGSV,4,4,16,31,21,035,36,32,39,107,42,40,36,264,38,41,67,251,50*7A
$GLGSV,3,1,10,65,02,334,,70,25,156,26,71,79,160,34,72,45,333,21*69
$GLGSV,3,2,10,73,06,026,09,74,28,346,32,75,27,284,16,76,04,247,*69
$GLGSV,3,3,10,84,14,103,31,85,14,157,21*65
$GNGLL,0641.64233,N,10137.06003,E,021955.00,A,D*7A
$GNRMC,021956.00,A,0641.64230,N,10137.06004,E,0.010,,150419,,,D*6D
$GNVTG,,T,,M,0.010,N,0.019,K,D*31
$GNGGA,021956.00,0641.64230,N,10137.06004,E,2,12,0.55,30.6,M,-13.0,M,,0000*57
$GNGSA,A,3,03,16,26,22,31,32,18,14,27,08,41,40,1.06,0.55,0.91*10
$GNGSA,A,3,75,70,71,72,73,74,84,,,,,,1.06,0.55,0.91*1E
$GPGSV,4,1,16,01,04,241,,03,35,296,44,08,18,195,31,10,06,154,*78
$GPGSV,4,2,16,11,00,223,,14,48,084,34,16,73,304,42,18,11,216,30*74
$GPGSV,4,3,16,22,47,271,36,23,05,325,,26,51,008,37,27,40,166,39*7D
$GPGSV,4,4,16,31,21,035,36,32,39,107,42,40,36,264,38,41,67,251,50*7A
$GLGSV,3,1,10,65,02,334,,70,25,156,26,71,79,160,34,72,45,333,19*62
$GLGSV,3,2,10,73,06,026,07,74,28,346,32,75,27,284,16,76,04,247,*67
$GLGSV,3,3,10,84,14,103,31,85,14,157,22*66
$GNGLL,0641.64230,N,10137.06004,E,021956.00,A,D*7D
$GNRMC,021957.00,A,0641.64227,N,10137.06005,E,0.014,,150419,,,D*6F
$GNVTG,,T,,M,0.014,N,0.026,K,D*39
$GNGGA,021957.00,0641.64227,N,10137.06005,E,2,12,0.57,30.4,M,-13.0,M,,0000*51
$GNGSA,A,3,03,16,26,22,31,32,18,14,27,08,41,40,1.18,0.57,1.03*17
$GNGSA,A,3,75,70,71,72,73,74,84,,,,,,1.18,0.57,1.03*19
$GPGSV,4,1,16,01,04,240,,03,35,296,44,08,18,195,32,10,06,154,*7A
$GPGSV,4,2,16,11,00,223,,14,48,084,34,16,73,304,42,18,11,216,30*74
$GPGSV,4,3,16,22,47,271,36,23,05,325,,26,51,008,37,27,40,166,40*73
$GPGSV,4,4,16,31,21,035,36,32,39,107,42,40,36,264,38,41,67,251,50*7A
$GLGSV,3,1,10,65,02,334,,70,25,156,27,71,79,160,34,72,45,333,19*63
$GLGSV,3,2,10,73,06,026,13,74,28,346,32,75,27,284,16,76,04,247,*62
$GLGSV,3,3,10,84,14,103,31,85,14,157,22*66
$GNGLL,0641.64227,N,10137.06005,E,021957.00,A,D*7B
$GNRMC,021958.00,A,0641.64225,N,10137.06005,E,0.016,,150419,,,D*60
$GNVTG,,T,,M,0.016,N,0.029,K,D*34
$GNGGA,021958.00,0641.64225,N,10137.06005,E,2,12,0.55,30.2,M,-13.0,M,,0000*58
$GNGSA,A,3,03,16,26,22,31,32,18,14,27,08,41,40,1.06,0.55,0.91*10
$GNGSA,A,3,75,70,71,72,73,74,84,,,,,,1.06,0.55,0.91*1E
$GPGSV,4,1,16,01,04,240,,03,35,296,44,08,18,195,32,10,06,154,*7A
$GPGSV,4,2,16,11,00,223,,14,48,084,34,16,73,304,42,18,11,216,30*74
$GPGSV,4,3,16,22,47,271,36,23,05,325,,26,51,008,36,27,40,166,39*7C
$GPGSV,4,4,16,31,21,035,35,32,39,107,42,40,36,264,38,41,67,251,50*79
$GLGSV,3,1,10,65,02,334,,70,25,156,27,71,79,160,34,72,45,333,18*62
$GLGSV,3,2,10,73,06,026,08,74,28,346,32,75,27,284,17,76,04,247,*69
$GLGSV,3,3,10,84,14,103,31,85,14,157,22*66
$GNGLL,0641.64225,N,10137.06005,E,021958.00,A,D*76
$GNRMC,021959.00,A,0641.64225,N,10137.06005,E,0.011,,150419,,,D*66
$GNVTG,,T,,M,0.011,N,0.021,K,D*3B
$GNGGA,021959.00,0641.64225,N,10137.06005,E,2,12,0.55,30.0,M,-13.0,M,,0000*5B
$GNGSA,A,3,03,16,26,22,31,32,18,14,27,08,41,40,1.06,0.55,0.91*10
$GNGSA,A,3,75,70,71,72,73,74,84,,,,,,1.06,0.55,0.91*1E
$GPGSV,4,1,16,01,04,240,,03,35,295,44,08,18,195,32,10,06,154,*79
$GPGSV,4,2,16,11,00,223,,14,48,084,34,16,73,304,42,18,11,216,30*74
$GPGSV,4,3,16,22,47,271,36,23,05,325,,26,51,008,36,27,40,166,39*7C
$GPGSV,4,4,16,31,21,035,35,32,39,107,42,40,36,264,38,41,67,251,50*79
$GLGSV,3,1,10,65,02,334,,70,25,156,27,71,79,160,34,72,45,333,19*63
$GLGSV,3,2,10,73,06,026,12,74,28,346,32,75,27,284,16,76,04,247,*63
$GLGSV,3,3,10,84,14,103,30,85,14,157,21*64
$GNGLL,0641.64225,N,10137.06005,E,021959.00,A,D*77
$GNRMC,022000.00,A,0641.64224,N,10137.06005,E,0.010,,150419,,,D*60
$GNVTG,,T,,M,0.010,N,0.018,K,D*30
$GNGGA,022000.00,0641.64224,N,10137.06005,E,2,12,0.57,29.7,M,-13.0,M,,0000*51
$GNGSA,A,3,03,16,26,22,31,32,18,14,27,08,41,40,1.18,0.57,1.03*17
$GNGSA,A,3,75,70,71,72,73,74,84,,,,,,1.18,0.57,1.03*19
$GPGSV,4,1,16,01,04,240,,03,35,295,44,08,18,195,32,10,06,154,*79
$GPGSV,4,2,16,11,00,223,,14,48,084,34,16,73,304,42,18,11,216,31*75
$GPGSV,4,3,16,22,47,271,36,23,05,325,,26,51,008,37,27,40,166,39*7D
$GPGSV,4,4,16,31,21,035,36,32,39,107,42,40,36,264,38,41,67,251,50*7A
$GLGSV,3,1,10,65,02,334,,70,25,156,27,71,79,160,34,72,45,333,19*63
$GLGSV,3,2,10,73,06,026,13,74,28,346,33,75,27,284,15,76,04,247,*60
$GLGSV,3,3,10,84,14,103,30,85,14,157,21*64
$GNGLL,0641.64224,N,10137.06005,E,022000.00,A,D*70
$GNRMC,022001.00,A,0641.64223,N,10137.06003,E,0.015,,150419,,,D*65
$GNVTG,,T,,M,0.015,N,0.028,K,D*36
$GNGGA,022001.00,0641.64223,N,10137.06003,E,2,12,0.55,29.5,M,-13.0,M,,0000*51
$GNGSA,A,3,03,16,26,22,31,32,18,14,27,08,41,40,1.06,0.55,0.91*10
$GNGSA,A,3,75,70,71,72,73,74,84,,,,,,1.06,0.55,0.91*1E
$GPGSV,4,1,16,01,04,240,,03,35,295,44,08,18,195,32,10,06,154,*79
$GPGSV,4,2,16,11,00,223,,14,48,084,34,16,73,304,43,18,11,216,31*74
$GPGSV,4,3,16,22,47,271,37,23,05,325,,26,51,008,37,27,40,166,39*7C
$GPGSV,4,4,16,31,21,035,36,32,39,107,42,40,36,264,38,41,67,251,50*7A
$GLGSV,3,1,10,65,02,334,,70,25,156,27,71,79,160,33,72,45,333,19*64
$GLGSV,3,2,10,73,06,026,16,74,28,346,33,75,27,284,16,76,04,247,*66
$GLGSV,3,3,10,84,14,103,30,85,14,157,21*64
$GNGLL,0641.64223,N,10137.06003,E,022001.00,A,D*70
$GNRMC,022002.00,A,0641.64221,N,10137.06002,E,0.012,,150419,,,D*62
$GNVTG,,T,,M,0.012,N,0.021,K,D*38
$GNGGA,022002.00,0641.64221,N,10137.06002,E,2,12,0.55,29.4,M,-13.0,M,,0000*50
$GNGSA,A,3,03,16,26,22,31,32,18,14,27,08,41,40,1.06,0.55,0.91*10
$GNGSA,A,3,75,70,71,72,73,74,84,,,,,,1.06,0.55,0.91*1E
$GPGSV,4,1,16,01,04,240,,03,35,295,44,08,18,195,32,10,06,154,*79
$GPGSV,4,2,16,11,00,223,,14,48,084,34,16,73,304,42,18,11,216,30*74
$GPGSV,4,3,16,22,47,271,37,23,05,325,,26,51,008,36,27,40,166,39*7D
$GPGSV,4,4,16,31,21,035,36,32,39,107,42,40,36,264,38,41,67,251,50*7A
$GLGSV,3,1,10,65,02,334,,70,25,156,27,71,79,160,33,72,45,333,19*64
$GLGSV,3,2,10,73,06,026,19,74,28,346,33,75,27,284,18,76,04,247,*67
$GLGSV,3,3,10,84,14,103,30,85,14,157,20*65
$GNGLL,0641.64221,N,10137.06002,E,022002.00,A,D*70
$GNRMC,022003.00,A,0641.64220,N,10137.06000,E,0.012,,150419,,,D*60
$GNVTG,,T,,M,0.012,N,0.023,K,D*3A
$GNGGA,022003.00,0641.64220,N,10137.06000,E,2,12,0.57,29.2,M,-13.0,M,,0000*56
$GNGSA,A,3,03,16,26,22,31,32,18,14,27,08,41,40,1.18,0.57,1.03*17
$GNGSA,A,3,75,70,71,72,73,74,84,,,,,,1.18,0.57,1.03*19
$GPGSV,4,1,16,01,04,240,,03,35,295,44,08,18,194,32,10,06,154,*78
$GPGSV,4,2,16,11,00,223,,14,48,084,34,16,73,304,42,18,11,216,30*74
$GPGSV,4,3,16,22,47,271,37,23,05,325,,26,51,008,36,27,40,166,39*7D
$GPGSV,4,4,16,31,21,035,36,32,39,107,42,40,36,264,39,41,67,251,50*7B
$GLGSV,3,1,10,65,02,334,,70,25,156,27,71,79,160,33,72,45,333,17*6A
$GLGSV,3,2,10,73,06,026,09,74,28,346,33,75,27,284,17,76,04,247,*69
$GLGSV,3,3,10,84,14,103,30,85,14,157,21*64
$GNGLL,0641.64220,N,10137.06000,E,022003.00,A,D*72
6D
$GNVTG,,T,,M,0.018,N,0.033,K,D*31
$GNGGA,022004.00,0641.64218,N,10137.05998,E,2,12,0.55,29.1,M,-13.0,M,,0000*50
$GNGSA,A,3,03,16,26,22,31,32,18,14,27,08,41,40,1.06,0.55,0.91*10
$GNGSA,A,3,75,70,71,72,73,74,84,,,,,,1.06,0.55,0.91*1E
$GPGSV,4,1,16,01,04,240,,03,35,295,44,08,18,194,32,10,06,154,*78
$GPGSV,4,2,16,11,00,223,,14,48,084,35,16,73,304,43,18,11,216,31*75
$GPGSV,4,3,16,22,47,271,37,23,05,325,,26,51,008,36,27,40,166,39*7D
$GPGSV,4,4,16,31,21,035,37,32,39,107,42,40,36,264,39,41,67,251,50*7A
$GLGSV,3,1,10,65,02,334,,70,25,156,28,71,79,160,33,72,45,333,15*67
$GLGSV,3,2,10,73,06,026,10,74,28,346,33,75,27,284,15,76,04,247,*63
$GLGSV,3,3,10,84,14,103,30,85,14,157,21*64
$GNGLL,0641.64218,N,10137.05998,E,022004.00,A,D*75
$GNRMC,022005.00,A,0641.64216,N,10137.05995,E,0.021,,150419,,,D*65
$GNVTG,,T,,M,0.021,N,0.039,K,D*31
$GNGGA,022005.00,0641.64216,N,10137.05995,E,2,12,0.55,29.0,M,-13.0,M,,0000*53
$GNGSA,A,3,03,16,26,22,31,32,18,14,27,08,41,40,1.06,0.55,0.91*10
$GNGSA,A,3,75,70,71,72,73,74,84,,,,,,1.06,0.55,0.91*1E
$GPGSV,4,1,16,01,04,240,,03,35,295,44,08,18,194,32,10,06,154,*78
$GPGSV,4,2,16,11,00,223,,14,48,084,35,16,73,304,43,18,11,216,31*75
$GPGSV,4,3,16,22,47,271,37,23,05,325,,26,51,008,36,27,40,166,39*7D
$GPGSV,4,4,16,31,21,035,37,32,39,107,42,40,36,264,39,41,67,251,50*7A
$GLGSV,3,1,10,65,02,334,,70,25,156,28,71,79,160,33,72,45,333,12*60
$GLGSV,3,2,10,73,06,026,10,74,28,346,33,75,27,284,14,76,04,247,*62
$GLGSV,3,3,10,84,14,103,30,85,14,157,21*64
$GNGLL,0641.64216,N,10137.05995,E,022005.00,A,D*77
$GNRMC,022006.00,A,0641.64214,N,10137.05991,E,0.019,,150419,,,D*6B
$GNVTG,,T,,M,0.019,N,0.034,K,D*37
$GNGGA,022006.00,0641.64214,N,10137.05991,E,2,12,0.55,28.8,M,-13.0,M,,0000*5F
$GNGSA,A,3,03,16,26,22,31,32,18,14,27,08,41,40,1.06,0.55,0.91*10
$GNGSA,A,3,75,70,71,72,73,74,84,,,,,,1.06,0.55,0.91*1E
$GPGSV,4,1,16,01,04,240,,03,35,295,44,08,18,194,33,10,06,154,*79
$GPGSV,4,2,16,11,00,223,,14,48,084,35,16,73,304,43,18,11,216,31*75
$GPGSV,4,3,16,22,47,271,38,23,05,325,,26,51,008,35,27,40,166,39*71
$GPGSV,4,4,16,31,21,035,38,32,39,107,42,40,36,264,38,41,67,251,50*74
$GLGSV,3,1,10,65,02,334,,70,25,156,27,71,79,160,34,72,45,333,15*6F
$GLGSV,3,2,10,73,06,026,09,74,28,346,33,75,27,284,21,76,04,247,*6C
$GLGSV,3,3,10,84,14,103,31,85,14,157,21*65
$GNGLL,0641.64214,N,10137.05991,E,022006.00,A,D*72
$GNRMC,022007.00,A,0641.64212,N,10137.05989,E,0.003,,150419,,,D*6E
$GNVTG,,T,,M,0.003,N,0.005,K,D*3E
$GNGGA,022007.00,0641.64212,N,10137.05989,E,2,12,0.55,28.8,M,-13.0,M,,0000*51
$GNGSA,A,3,03,16,26,22,31,32,18,14,27,08,41,40,1.06,0.55,0.91*10
$GNGSA,A,3,75,70,71,72,73,74,84,,,,,,1.06,0.55,0.91*1E
$GPGSV,4,1,16,01,04,240,,03,35,295,44,08,18,194,33,10,06,154,*79
$GPGSV,4,2,16,11,00,223,,14,48,084,35,16,73,304,42,18,11,216,30*75
$GPGSV,4,3,16,22,47,271,37,23,05,325,,26,51,008,35,27,40,166,39*7E
$GPGSV,4,4,16,31,21,035,39,32,39,107,42,40,36,264,39,41,67,251,50*74
$GLGSV,3,1,10,65,02,334,,70,25,156,27,71,79,160,34,72,45,333,16*6C
$GLGSV,3,2,10,73,06,026,09,74,28,346,32,75,27,284,22,76,04,247,*6E
$GLGSV,3,3,10,84,14,103,32,85,14,157,22*65
$GNGLL,0641.64212,N,10137.05989,E,022007.00,A,D*7C
$GNRMC,022008.00,A,0641.64211,N,10137.05986,E,0.011,,150419,,,D*6E
$GNVTG,,T,,M,0.011,N,0.021,K,D*3B
$GNGGA,022008.00,0641.64211,N,10137.05986,E,2,12,0.56,28.7,M,-13.0,M,,0000*5E
$GNGSA,A,3,03,16,26,22,31,32,18,14,27,08,41,40,1.07,0.56,0.92*11
$GNGSA,A,3,75,70,71,72,73,74,84,,,,,,1.07,0.56,0.92*1F
$GPGSV,4,1,16,01,04,240,,03,35,295,45,08,18,194,32,10,06,154,*79
$GPGSV,4,2,16,11,00,223,,14,48,084,34,16,73,304,42,18,11,216,30*74
$GPGSV,4,3,16,22,47,271,37,23,05,325,,26,51,008,34,27,40,166,39*7F
$GPGSV,4,4,16,31,21,035,38,32,39,107,42,40,36,264,39,41,67,251,50*75
$GLGSV,3,1,10,65,02,334,,70,25,156,27,71,79,160,34,72,45,333,18*62
$GLGSV,3,2,10,73,06,026,10,74,28,346,32,75,27,284,23,76,04,247,*67
$GLGSV,3,3,10,84,14,103,32,85,14,157,22*65
$GNGLL,0641.64211,N,10137.05986,E,022008.00,A,D*7F
$GNRMC,022009.00,A,0641.64209,N,10137.05983,E,0.007,,150419,,,D*64
$GNVTG,,T,,M,0.007,N,0.013,K,D*3D
$GNGGA,022009.00,0641.64209,N,10137.05983,E,2,12,0.59,28.8,M,-13.0,M,,0000*53
$GNGSA,A,3,03,16,26,22,31,32,18,14,27,08,41,40,1.19,0.59,1.03*18
$GNGSA,A,3,75,70,71,72,73,74,84,,,,,,1.19,0.59,1.03*16
$GPGSV,4,1,16,01,04,240,,03,35,295,45,08,18,194,33,10,06,154,*78
$GPGSV,4,2,16,11,00,223,,14,48,085,34,16,73,304,42,18,11,216,31*74
$GPGSV,4,3,16,22,47,271,37,23,05,325,,26,51,008,35,27,40,166,39*7E
$GPGSV,4,4,16,31,21,035,39,32,39,107,41,40,36,264,39,41,67,251,50*77
$GLGSV,3,1,10,65,02,334,,70,25,156,26,71,79,160,34,72,45,333,18*63
$GLGSV,3,2,10,73,06,026,09,74,28,346,32,75,27,284,23,76,04,247,*6F
$GLGSV,3,3,10,84,14,103,33,85,14,157,22*64
$GNGLL,0641.64209,N,10137.05983,E,022009.00,A,D*72
$GNRMC,022010.00,A,0641.64206,N,10137.05980,E,0.030,,150419,,,D*64
$GNVTG,,T,,M,0.030,N,0.055,K,D*3B
$GNGGA,022010.00,0641.64206,N,10137.05980,E,2,12,0.56,28.9,M,-13.0,M,,0000*59
$GNGSA,A,3,03,16,26,22,31,32,18,14,27,08,41,40,1.07,0.56,0.92*11
$GNGSA,A,3,75,70,71,72,73,74,84,,,,,,1.07,0.56,0.92*1F
$GPGSV,4,1,16,01,04,240,,03,35,295,45,08,18,194,33,10,06,154,*78
$GPGSV,4,2,16,11,00,223,,14,48,085,34,16,73,304,42,18,11,216,31*74
$GPGSV,4,3,16,22,47,271,37,23,05,325,,26,51,008,35,27,40,166,39*7E
$GPGSV,4,4,16,31,21,035,39,32,39,107,41,40,36,264,39,41,67,251,50*77
$GLGSV,3,1,10,65,02,334,,70,25,156,26,71,79,160,34,72,45,333,19*62
$GLGSV,3,2,10,73,06,026,08,74,28,346,31,75,27,284,22,76,04,247,*6C
$GLGSV,3,3,10,84,14,103,33,85,14,157,22*64
$GNGLL,0641.64206,N,10137.05980,E,022010.00,A,D*76
6D
$GNVTG,,T,,M,0.017,N,0.031,K,D*3C
$GNGGA,022011.00,0641.64203,N,10137.05977,E,2,12,0.56,28.9,M,-13.0,M,,0000*55
$GNGSA,A,3,03,16,26,22,31,32,18,14,27,08,41,40,1.07,0.56,0.92*11
$GNGSA,A,3,75,70,71,72,73,74,84,,,,,,1.07,0.56,0.92*1F
$GPGSV,4,1,16,01,04,240,,03,35,295,45,08,18,194,33,10,06,154,*78
$GPGSV,4,2,16,11,00,223,,14,48,085,34,16,73,306,42,18,11,216,31*76
$GPGSV,4,3,16,22,47,271,37,23,05,325,,26,51,008,35,27,40,166,39*7E
$GPGSV,4,4,16,31,21,035,39,32,39,107,41,40,36,264,39,41,67,251,50*77
$GLGSV,3,1,10,65,02,334,,70,25,156,25,71,79,160,34,72,45,333,19*61
$GLGSV,3,2,10,73,06,026,10,74,28,346,32,75,27,284,23,76,04,247,*67
$GLGSV,3,3,10,84,14,103,33,85,14,157,22*64
$GNGLL,0641.64203,N,10137.05977,E,022011.00,A,D*7A
$GNRMC,022012.00,A,0641.64201,N,10137.05976,E,0.004,,150419,,,D*6F
$GNVTG,,T,,M,0.004,N,0.007,K,D*3B
$GNGGA,022012.00,0641.64201,N,10137.05976,E,2,12,0.59,29.0,M,-13.0,M,,0000*52
$GNGSA,A,3,03,16,26,22,31,32,18,14,27,08,41,40,1.19,0.59,1.03*18
$GNGSA,A,3,75,70,71,72,73,74,84,,,,,,1.19,0.59,1.03*16
$GPGSV,4,1,16,01,04,240,,03,35,295,45,08,18,194,32,10,06,154,*79
$GPGSV,4,2,16,11,00,223,,14,48,085,33,16,73,306,42,18,11,216,30*70
$GPGSV,4,3,16,22,47,271,37,23,05,325,,26,51,008,35,27,40,166,39*7E
$GPGSV,4,4,16,31,21,035,38,32,39,107,41,40,36,264,39,41,67,251,50*76
$GLGSV,3,1,10,65,02,334,,70,25,156,24,71,79,160,35,72,45,333,19*61
$GLGSV,3,2,10,73,06,026,09,74,28,346,33,75,27,284,24,76,04,247,*69
$GLGSV,3,3,10,84,14,103,33,85,14,157,21*67
$GNGLL,0641.64201,N,10137.05976,E,022012.00,A,D*7A
$GNRMC,022013.00,A,0641.64200,N,10137.05976,E,0.003,,150419,,,D*68
$GNVTG,,T,,M,0.003,N,0.005,K,D*3E
$GNGGA,022013.00,0641.64200,N,10137.05976,E,2,12,0.56,29.0,M,-13.0,M,,0000*5D
$GNGSA,A,3,03,16,26,22,31,32,18,14,27,08,41,40,1.07,0.56,0.92*11
$GNGSA,A,3,75,70,71,72,73,74,84,,,,,,1.07,0.56,0.92*1F
$GPGSV,4,1,16,01,04,240,,03,35,295,45,08,18,194,33,10,06,154,*78
$GPGSV,4,2,16,11,00,223,,14,48,085,33,16,73,306,42,18,11,216,30*70
$GPGSV,4,3,16,22,47,271,37,23,05,325,,26,51,008,35,27,40,166,39*7E
$GPGSV,4,4,16,31,21,035,37,32,39,107,41,40,36,264,39,41,67,251,50*79
$GLGSV,3,1,10,65,02,334,,70,25,156,24,71,79,160,35,72,45,333,19*61
$GLGSV,3,2,10,73,06,026,11,74,28,346,33,75,27,284,25,76,04,247,*61
$GLGSV,3,3,10,84,14,103,33,85,14,157,21*67
$GNGLL,0641.64200,N,10137.05976,E,022013.00,A,D*7A
$GNRMC,022014.00,A,0641.64198,N,10137.05979,E,0.014,,150419,,,D*64
$GNVTG,,T,,M,0.014,N,0.027,K,D*38
$GNGGA,022014.00,0641.64198,N,10137.05979,E,2,12,0.56,29.1,M,-13.0,M,,0000*56
$GNGSA,A,3,03,16,26,22,31,32,18,14,27,08,41,40,1.07,0.56,0.92*11
$GNGSA,A,3,75,70,71,72,73,74,84,,,,,,1.07,0.56,0.92*1F
$GPGSV,4,1,16,01,04,240,,03,35,295,45,08,18,194,32,10,06,154,*79
$GPGSV,4,2,16,11,00,223,,14,48,085,33,16,73,306,42,18,11,216,30*70
$GPGSV,4,3,16,22,47,271,37,23,05,325,,26,51,008,34,27,40,166,39*7F
$GPGSV,4,4,16,31,21,035,36,32,39,107,40,40,36,264,39,41,67,251,50*79
$GLGSV,3,1,10,65,02,334,,70,25,156,24,71,79,160,35,72,45,333,20*6B
$GLGSV,3,2,10,73,06,026,12,74,28,346,33,75,27,284,26,76,04,247,*61
$GLGSV,3,3,10,84,14,103,33,85,14,157,21*67
$GNGLL,0641.64198,N,10137.05979,E,022014.00,A,D*70
6C
$GNVTG,,T,,M,0.017,N,0.032,K,D*3F
$GNGGA,022015.00,0641.64196,N,10137.05982,E,2,12,0.59,29.0,M,-13.0,M,,0000*53
$GNGSA,A,3,03,16,26,22,31,32,18,14,27,08,41,40,1.19,0.59,1.03*18
$GNGSA,A,3,75,70,71,72,73,74,84,,,,,,1.19,0.59,1.03*16
$GPGSV,4,1,16,01,04,240,,03,35,295,45,08,18,194,31,10,06,154,*7A
$GPGSV,4,2,16,11,00,223,,14,48,085,34,16,73,306,42,18,11,216,29*7F
$GPGSV,4,3,16,22,47,271,37,23,05,325,,26,51,008,33,27,40,166,39*78
$GPGSV,4,4,16,31,21,035,36,32,39,107,40,40,36,264,39,41,67,251,50*79
$GLGSV,3,1,10,65,02,334,,70,25,156,25,71,79,160,35,72,45,333,19*60
$GLGSV,3,2,10,73,06,026,09,74,28,346,33,75,27,284,25,76,04,247,*68
$GLGSV,3,3,10,84,14,103,32,85,14,157,22*65
$GNGLL,0641.64196,N,10137.05982,E,022015.00,A,D*7B
