$GPVTG,,,,,,,,,N*30$GPGGA,,,,,,0,00,99.99,,,,,,*48$GPGS99,,,,,,*48$GPGSA,A,1,,,,,,,,,,,,,99.99,99.99,99.99*30$GPGSV,3,1,12,01,,,22,02,,$GPRMC,,V,,,,,,,,,,N*53$GPVTG,,,,,,,,,N*30braaaaaaeeeeee $GPGGA,,,,,,0,00,99.99,,,,,,*48$GNRMC,132840.00,A,1346.88722,N,10040.46293,E,0.206,,191118,,,A,V*15$GNVTG,,T,,M,0.206,N,0.382,K,A*30$GNGNS,132840.00,1346.88722,N,10040.46293,E,ANNA,09,0.90,2.7,-27.4,,,V*3F$GNGGA,132840.00,1346.88722,N,10040.46293,E,1,09,0.90,2.7,M,-27.4,M,,*6F$GNGSA,A,3,03,23,31,16,26,22,27,08,,,,,2.13,0.90,1.93,1*0D$GNGSA,A,3,13,,,,,,,,,,,,2.13,0.90,1.93,4*04$GPGSV,4,1,13,03,36,253,36,08,40,182,10,09,10,324,22,11,05,200,11,0*69$GPGSV,4,2,13,14,29,131,22,16,52,002,16,18,07,189,,22,35,227,20,0*64$GPGSV,4,3,13,23,35,327,35,26,30,026,27,27,59,139,32,31,20,067,21,0*60$GPGSV,4,4,13,32,09,139,13,0*56$GNGLL,1346.88722,N,10040.46293,E,132840.00,A,A*73$GNGST,132840.00,54,,,,3.0,3.5,13*6D$GNZDA,132840.00,19,11,2018,00,00*77$GNTXT,01,01,02,u-blox AG - www.u-blox.com*4E$GNTXT,01,01,02,HW UBX-M8030 00080000*60$GNTXT,01,01,02,ROM CORE 3.01 (107888)*2B$GNTXT,01,01,02,FWVER=SPG 3.01*46$GNTXT,01,01,02,PROTVER=18.00*11$GNTXT,01,01,02,GPS;GLO;GAL;BDS*77$GNTXT,01,01,02,SBAS;IMES;QZSS*49$GNTXT,01,01,02,GNSS OTP=GPS;GLO*37$GNTXT,01,01,02,LLC=FFFFFFFF-FFFFFFFF-FFFFFFFF-FFFFFFFF-FFFFFFFD*2F$GNTXT,01,01,02,ANTSUPERV=AC SD PDoS SR*3E$GNTXT,01,01,02,ANTSTATUS=OK*25$GNTXT,01,01,02,PF=3FF*4B$GNRMC,132841.00,A,1346.88723,N,10040.46301,E,0.060,,191118,,,A,V*1D$GNVTG,,T,,M,0.060,N,0.110,K,A*3B$GNGNS,132841.00,1346.88723,N,10040.46301,E,ANNA,09,0.90,2.3,-27.4,,,V*31$GNGGA,132841.00,1346.88723,N,10040.46301,E,1,09,0.90,2.3,M,-27.4,M,,*61$GNGSA,A,3,03,23,31,16,26,22,27,08,,,,,2.13,0.90,1.93,1*0D$GNGSA,A,3,13,,,,,,,,,,,,2.13,0.90,1.93,4*04$GPGSV,4,1,13,03,36,253,36,08,40,182,12,09,10,324,21,11,05,200,12,0*6B$GPGSV,4,2,13,14,29,131,21,16,52,002,17,18,07,189,,22,35,227,19,0*6C$GPGSV,4,3,13,23,35,327,34,26,30,026,27,27,59,139,32,31,20,067,20,0*60$GPGSV,4,4,13,32,09,139,13,0*56$GNGLL,1346.88723,N,10040.46301,E,132841.00,A,A*79$GNGST,132841.00,3965255,,,,3.0,3.5,13*56$GNZDA,132841.00,19,11,2018,00,00*76$GNRMC,132842.00,A,1346.88724,N,10040.46307,E,0.149,,191118,,,A,V*15$GNVTG,,T,,M,0.149,N,0.276,K,A*32$GNGNS,132842.00,1346.88724,N,10040.46307,E,ANNA,09,0.90,2.0,-27.4,,,V*30$GNGGA,132842.00,1346.88724,N,10040.46307,E,1,09,0.90,2.0,M,-27.4,M,,*60$GNGSA,A,3,03,23,31,16,26,22,27,08,,,,,2.13,0.90,1.93,1*0D$GNGSA,A,3,13,,,,,,,,,,,,2.13,0.90,1.93,4*04$GPGSV,4,1,13,03,36,253,36,08,40,182,07,09,10,324,21,11,05,200,14,0*69$GPGSV,4,2,13,14,29,131,21,16,52,002,17,18,07,189,,22,35,227,19,0*6C$GPGSV,4,3,13,23,35,327,34,26,30,026,27,27,59,139,32,31,20,067,21,0*61$GPGSV,4,4,13,32,09,139,13,0*56$GBGSV,1,1,04,05,,,31,09,89,293,,13,16,175,25,22,,,25,0*72$GNGLL,1346.88724,N,10040.46307,E,132842.00,A,A*7B$GNGST,132842.00,3965255,,,,3.0,3.5,13*55$GNZDA,132842.00,19,11,2018,00,00*75$GNRMC,132843.00,A,1346.88723,N,10040.46313,E,0.186,,191118,,,A,V*15$GNVTG,,T,,M,0.186,N,0.345,K,A*30$GNGNS,132843.00,1346.88723,N,10040.46313,E,ANNA,09,0.90,1.5,-27.4,,,V*35$GNGGA,132843.00,1346.88723,N,10040.46313,E,1,09,0.90,1.5,M,-27.4,M,,*65$GNGSA,A,3,03,23,31,16,26,22,27,08,,,,,2.13,0.90,1.93,1*0D$GNGSA,A,3,13,,,,,,,,,,,,2.13,0.90,1.93,4*04$GPGSV,4,1,13,03,36,253,36,08,40,182,09,09,10,324,20,11,05,200,15,0*67$GPGSV,4,2,13,14,29,131,20,16,52,002,17,18,07,189,,22,35,227,18,0*6C$GPGSV,4,3,13,23,35,327,35,26,30,026,27,27,59,139,31,31,20,067,20,0*62$GPGSV,4,4,13,32,09,139,12,0*57$GNGLL,1346.88723,N,10040.46313,E,132843.00,A,A*78$GNGST,132843.00,59,,,,3.0,3.5,13*63$GNZDA,132843.00,19,11,2018,00,00*74$GNRMC,132844.00,A,1346.88725,N,10040.46317,E,0.126,,191118,,,A,V*1A$GNVTG,,T,,M,0.126,N,0.234,K,A*3D$GNGNS,132844.00,1346.88725,N,10040.46317,E,ANNA,09,0.90,1.2,-27.4,,,V*37$GNGGA,132844.00,1346.88725,N,10040.46317,E,1,09,0.90,1.2,M,-27.4,M,,*67$GNGSA,A,3,03,23,31,16,26,22,27,08,,,,,2.13,0.90,1.93,1*0D$GNGSA,A,3,13,,,,,,,,,,,,2.13,0.90,1.93,4*04$GPGSV,4,1,13,03,36,253,36,08,40,182,09,09,10,324,20,11,05,200,14,0*66$GPGSV,4,2,13,14,29,131,21,16,52,002,17,18,07,189,,22,35,227,18,0*6D$GPGSV,4,3,13,23,35,327,35,26,30,026,28,27,59,139,31,31,20,067,21,0*6C$GPGSV,4,4,13,32,09,139,,0*54$GBGSV,1,1,04,05,,,30,09,89,293,,13,16,175,26,22,,,23,0*76$GNGLL,1346.88725,N,10040.46317,E,132844.00,A,A*7D$GNGST,132844.00,3965255,,,,3.0,3.5,13*53$GNZDA,132844.00,19,11,2018,00,00*73$GNRMC,132845.00,A,1346.88727,N,10040.46318,E,0.048,,191118,,,A,V*1F$GNVTG,,T,,M,0.048,N,0.090,K,A*38$GNGNS,132845.00,1346.88727,N,10040.46318,E,ANNA,09,0.90,1.2,-27.4,,,V*3B$GNGGA,132845.00,1346.88727,N,10040.46318,E,1,09,0.90,1.2,M,-27.4,M,,*6B$GNGSA,A,3,03,23,31,16,26,22,27,08,,,,,2.13,0.90,1.93,1*0D$GNGSA,A,3,13,,,,,,,,,,,,2.13,0.90,1.93,4*04$GPGSV,4,1,13,03,36,253,35,08,40,182,13,09,10,324,21,11,05,200,14,0*6F$GPGSV,4,2,13,14,29,131,21,16,52,002,17,18,07,189,,22,35,227,18,0*6D$GPGSV,4,3,13,23,35,327,35,26,30,026,28,27,59,139,31,31,20,067,21,0*6C$GPGSV,4,4,13,32,09,139,,0*54$GBGSV,1,1,04,05,,,30,09,89,293,,13,16,175,26,22,,,22,0*77$GNGLL,1346.88727,N,10040.46318,E,132845.00,A,A*71$GNGST,132845.00,3965255,,,,3.0,3.5,13*52$GNZDA,132845.00,19,11,2018,00,00*72$GNRMC,132846.00,A,1346.88726,N,10040.46324,E,0.100,,191118,,,A,V*1F$GNVTG,,T,,M,0.100,N,0.185,K,A*30$GNGNS,132846.00,1346.88726,N,10040.46324,E,ANNA,09,0.90,0.6,-27.4,,,V*33$GNGGA,132846.00,1346.88726,N,10040.46324,E,1,09,0.90,0.6,M,-27.4,M,,*63$GNGSA,A,3,03,23,31,16,26,22,27,08,,,,,2.13,0.90,1.93,1*0D$GNGSA,A,3,13,,,,,,,,,,,,2.13,0.90,1.93,4*04$GPGSV,4,1,13,03,36,253,35,08,40,182,10,09,10,324,21,11,05,200,11,0*69$GPGSV,4,2,13,14,29,131,21,16,52,002,18,18,07,189,,22,34,227,17,0*6C$GPGSV,4,3,13,23,35,327,35,26,30,026,28,27,59,139,31,31,20,067,21,0*6C$GPGSV,4,4,13,32,09,139,,0*54$GBGSV,1,1,04,05,,,29,09,89,293,26,13,16,175,26,22,,,21,0*78$GNGLL,1346.88726,N,10040.46324,E,132846.00,A,A*7C$GNGST,132846.00,51,,,,3.1,3.5,13*6F$GNZDA,132846.00,19,11,2018,00,00*71$GNRMC,132847.00,A,1346.88723,N,10040.46331,E,0.162,,191118,,,A,V*1B$GNVTG,,T,,M,0.162,N,0.300,K,A*3B$GNGNS,132847.00,1346.88723,N,10040.46331,E,ANNA,09,0.90,0.1,-27.4,,,V*34$GNGGA,132847.00,1346.88723,N,10040.46331,E,1,09,0.90,0.1,M,-27.4,M,,*64$GNGSA,A,3,03,23,31,16,26,22,27,08,,,,,2.13,0.90,1.93,1*0D$GNGSA,A,3,13,,,,,,,,,,,,2.13,0.90,1.93,4*04$GPGSV,4,1,13,03,36,253,35,08,40,182,12,09,10,324,21,11,05,200,08,0*63$GPGSV,4,2,13,14,29,131,21,16,52,002,19,18,07,189,,22,34,227,17,0*6D$GPGSV,4,3,13,23,35,327,35,26,30,026,28,27,59,139,31,31,20,067,21,0*6C$GPGSV,4,4,13,32,09,139,,0*54$GNGLL,1346.88723,N,10040.46331,E,132847.00,A,A*7C$GNGST,132847.00,1001,,,,3.1,3.5,13*6A$GNZDA,132847.00,19,11,2018,00,00*70$GNRMC,132848.00,A,1346.88722,N,10040.46335,E,0.088,,191118,,,A,V*14$GNVTG,,T,,M,0.088,N,0.162,K,A*38$GNGNS,132848.00,1346.88722,N,10040.46335,E,ANNA,09,0.90,-0.3,-27.4,,,V*11$GNGGA,132848.00,1346.88722,N,10040.46335,E,1,09,0.90,-0.3,M,-27.4,M,,*41$GNGSA,A,3,03,23,31,16,26,22,27,08,,,,,2.13,0.90,1.93,1*0D$GNGSA,A,3,13,,,,,,,,,,,,2.13,0.90,1.93,4*04$GPGSV,4,1,13,03,36,253,36,08,40,182,12,09,10,324,21,11,05,200,07,0*6F$GPGSV,4,2,13,14,29,131,21,16,52,002,19,18,07,189,,22,34,227,17,0*6D$GPGSV,4,3,13,23,35,327,35,26,30,026,28,27,59,139,31,31,20,067,20,0*6D$GPGSV,4,4,13,32,09,139,,0*54$GBGSV,1,1,04,05,,,30,09,89,293,24,13,16,175,26,22,,,22,0*71$GNGLL,1346.88722,N,10040.46335,E,132848.00,A,A*76$GNGST,132848.00,1001,,,,3.1,3.5,13*65$GNZDA,132848.00,19,11,2018,00,00*7F$GNRMC,132849.00,A,1346.88720,N,10040.46338,E,0.064,,191118,,,A,V*18$GNVTG,,T,,M,0.064,N,0.119,K,A*36$GNGNS,132849.00,1346.88720,N,10040.46338,E,ANNA,09,0.90,-0.9,-27.4,,,V*15$GNGGA,132849.00,1346.88720,N,10040.46338,E,1,09,0.90,-0.9,M,-27.4,M,,*45$GNGSA,A,3,03,23,31,16,26,22,27,08,,,,,2.13,0.90,1.93,1*0D$GNGSA,A,3,13,,,,,,,,,,,,2.13,0.90,1.93,4*04$GPGSV,4,1,13,03,36,253,36,08,40,182,15,09,10,324,21,11,05,200,08,0*67$GPGSV,4,2,13,14,29,131,21,16,52,002,19,18,07,189,,22,34,227,15,0*6F$GPGSV,4,3,13,23,35,327,35,26,30,026,28,27,59,139,31,31,20,067,20,0*6D$GPGSV,4,4,13,32,09,139,,0*54$GBGSV,1,1,04,05,,,30,09,89,293,23,13,16,175,26,22,,,22,0*76$GNGLL,1346.88720,N,10040.46338,E,132849.00,A,A*78$GNGST,132849.00,49,,,,3.1,3.4,13*68$GNZDA,132849.00,19,11,2018,00,00*7E$GNRMC,132850.00,A,1346.88719,N,10040.46339,E,0.109,,191118,,,A,V*11$GNVTG,,T,,M,0.109,N,0.203,K,A*34$GNGNS,132850.00,1346.88719,N,10040.46339,E,ANNA,09,0.90,-1.3,-27.4,,,V*1D$GNGGA,132850.00,1346.88719,N,10040.46339,E,1,09,0.90,-1.3,M,-27.4,M,,*4D$GNGSA,A,3,03,23,31,16,26,22,27,08,,,,,2.13,0.90,1.93,1*0D$GNGSA,A,3,13,,,,,,,,,,,,2.13,0.90,1.93,4*04$GPGSV,4,1,13,03,36,253,35,08,40,182,10,09,10,324,21,11,05,200,,0*69$GPGSV,4,2,13,14,29,131,21,16,52,002,20,18,07,189,,22,34,227,13,0*63$GPGSV,4,3,13,23,35,327,35,26,30,026,28,27,59,139,31,31,20,067,20,0*6D$GPGSV,4,4,13,32,09,139,,0*54$GBGSV,1,1,04,05,,,30,09,89,293,23,13,16,175,26,22,,,22,0*76$GNGLL,1346.88719,N,10040.46339,E,132850.00,A,A*7B$GNGST,132850.00,107925,,,,3.1,3.4,13*65$GNZDA,132850.00,19,11,2018,00,00*76$GNRMC,132851.00,A,1346.88720,N,10040.46341,E,0.155,,191118,,,A,V*1C$GNVTG,,T,,M,0.155,N,0.286,K,A*30$GNGNS,132851.00,1346.88720,N,10040.46341,E,ANNA,09,0.90,-1.3,-27.4,,,V*19$GNGGA,132851.00,1346.88720,N,10040.46341,E,1,09,0.90,-1.3,M,-27.4,M,,*49$GNGSA,A,3,03,23,31,16,26,22,27,08,,,,,2.13,0.90,1.93,1*0D$GNGSA,A,3,13,,,,,,,,,,,,2.13,0.90,1.93,4*04$GPGSV,4,1,13,03,36,253,35,08,40,182,11,09,10,324,21,11,05,200,,0*68$GPGSV,4,2,13,14,29,131,21,16,52,002,20,18,07,189,,22,34,227,14,0*64$GPGSV,4,3,13,23,35,327,35,26,30,026,28,27,59,138,30,31,20,067,20,0*6D$GPGSV,4,4,13,32,09,139,,0*54$GBGSV,2,1,05,05,,,30,09,89,293,23,10,55,325,,13,16,175,26,0*41$GBGSV,2,2,05,22,,,22,0*72$GNGLL,1346.88720,N,10040.46341,E,132851.00,A,A*7F$GNGST,132851.00,159889,,,,3.1,3.4,13*68$GNZDA,132851.00,19,11,2018,00,00*77$GNRMC,132852.00,A,1346.88718,N,10040.46346,E,0.128,,191118,,,A,V*19$GNVTG,,T,,M,0.128,N,0.236,K,A*31$GNGNS,132852.00,1346.88718,N,10040.46346,E,ANNA,09,0.90,-1.7,-27.4,,,V*12$GNGGA,132852.00,1346.88718,N,10040.46346,E,1,09,0.90,-1.7,M,-27.4,M,,*42$GNGSA,A,3,03,23,31,16,26,22,27,08,,,,,2.13,0.90,1.93,1*0D$GNGSA,A,3,13,,,,,,,,,,,,2.13,0.90,1.93,4*04$GPGSV,4,1,13,03,36,253,36,08,40,182,16,09,10,324,22,11,05,200,,0*6F$GPGSV,4,2,13,14,29,131,21,16,52,002,21,18,07,189,,22,34,227,13,0*62$GPGSV,4,3,13,23,35,327,35,26,30,026,29,27,59,138,31,31,20,067,18,0*66$GPGSV,4,4,13,32,09,139,,0*54$GBGSV,2,1,05,05,,,31,09,89,293,23,10,55,325,,13,16,175,26,0*40$GBGSV,2,2,05,22,,,23,0*73$GNGLL,1346.88718,N,10040.46346,E,132852.00,A,A*70$GNGST,132852.00,54,,,,3.1,3.4,13*6E$GNZDA,132852.00,19,11,2018,00,00*74$GNRMC,132853.00,A,1346.88719,N,10040.46346,E,0.128,,191118,,,A,V*19$GNVTG,,T,,M,0.128,N,0.237,K,A*30$GNGNS,132853.00,1346.88719,N,10040.46346,E,ANNA,09,0.90,-1.7,-27.4,,,V*12$GNGGA,132853.00,1346.88719,N,10040.46346,E,1,09,0.90,-1.7,M,-27.4,M,,*42$GNGSA,A,3,03,23,31,16,26,22,27,08,,,,,2.13,0.90,1.93,1*0D$GNGSA,A,3,13,,,,,,,,,,,,2.13,0.90,1.93,4*04$GPGSV,4,1,13,03,36,253,36,08,40,182,13,09,10,324,21,11,05,200,,0*69$GPGSV,4,2,13,14,29,131,21,16,52,002,21,18,07,189,,22,34,227,15,0*64$GPGSV,4,3,13,23,35,327,35,26,30,026,29,27,59,138,31,31,20,067,17,0*69$GPGSV,4,4,13,32,09,139,,0*54$GBGSV,2,1,05,05,,,30,09,89,293,23,10,55,325,,13,16,175,26,0*41$GBGSV,2,2,05,22,,,23,0*73$GNGLL,1346.88719,N,10040.46346,E,132853.00,A,A*70$GNGST,132853.00,67953,,,,3.1,3.4,13*50$GNZDA,132853.00,19,11,2018,00,00*75$GNRMC,132854.00,A,1346.88716,N,10040.46346,E,0.118,,191118,,,A,V*12$GNVTG,,T,,M,0.118,N,0.219,K,A*3F$GNGNS,132854.00,1346.88716,N,10040.46346,E,ANNA,09,0.90,-1.9,-27.4,,,V*14$GNGGA,132854.00,1346.88716,N,10040.46346,E,1,09,0.90,-1.9,M,-27.4,M,,*44$GNGSA,A,3,03,23,31,16,26,22,27,08,,,,,2.13,0.90,1.93,1*0D$GNGSA,A,3,13,,,,,,,,,,,,2.13,0.90,1.93,4*04$GPGSV,4,1,13,03,36,253,35,08,40,182,13,09,10,324,21,11,05,200,,0*6A$GPGSV,4,2,13,14,29,131,20,16,52,002,22,18,07,189,,22,34,227,16,0*65$GPGSV,4,3,13,23,35,327,35,26,30,026,29,27,59,138,31,31,20,068,17,0*66$GPGSV,4,4,13,32,09,139,,0*54$GBGSV,2,1,05,05,,,30,09,89,293,23,10,55,325,,13,16,175,26,0*41$GBGSV,2,2,05,22,,,23,0*73$GNGLL,1346.88716,N,10040.46346,E,132854.00,A,A*78$GNGST,132854.00,99931,,,,3.1,3.4,14*55$GNZDA,132854.00,19,11,2018,00,00*72V*17$GNVTG,,T,,M,0.053,N,0.098,K,A*3A$GNGNS,132855.00,1346.88713,N,10040.46349,E,ANNA,09,0.90,-2.4,-27.4,,,V*11$GNGGA,132855.00,1346.88713,N,10040.46349,E,1,09,0.90,-2.4,M,-27.4,M,,*41$GNGSA,A,3,03,23,31,16,26,22,27,08,,,,,2.13,0.90,1.93,1*0D$GNGSA,A,3,13,,,,,,,,,,,,2.13,0.90,1.93,4*04$GPGSV,4,1,13,03,36,253,35,08,40,182,10,09,10,324,21,11,05,200,,0*69$GPGSV,4,2,13,14,29,131,20,16,52,002,22,18,07,189,,22,34,227,15,0*66$GPGSV,4,3,13,23,35,327,34,26,30,026,29,27,59,138,30,31,20,068,16,0*67$GPGSV,4,4,13,32,09,139,,0*54$GBGSV,2,1,05,05,,,30,09,89,293,23,10,55,325,,13,16,175,26,0*41$GBGSV,2,2,05,22,,,23,0*73$GNGLL,1346.88713,N,10040.46349,E,132855.00,A,A*73$GNGST,132855.00,54,,,,3.1,3.4,14*6E$GNZDA,132855.00,19,11,2018,00,00*73$GNRMC,132856.00,A,1346.88708,N,10040.46350,E,0.099,,191118,,,A,V*10$GNVTG,,T,,M,0.099,N,0.184,K,A*30$GNGNS,132856.00,1346.88708,N,10040.46350,E,ANNA,09,0.90,-2.8,-27.4,,,V*1C$GNGGA,132856.00,1346.88708,N,10040.46350,E,1,09,0.90,-2.8,M,-27.4,M,,*4C$GNGSA,A,3,03,23,31,16,26,22,27,08,,,,,2.13,0.90,1.93,1*0D$GNGSA,A,3,13,,,,,,,,,,,,2.13,0.90,1.93,4*04$GPGSV,4,1,13,03,36,253,35,08,40,182,12,09,10,324,21,11,05,200,,0*6B$GPGSV,4,2,13,14,29,131,20,16,52,002,22,18,07,189,,22,34,227,16,0*65$GPGSV,4,3,13,23,35,327,35,26,30,026,29,27,59,138,31,31,20,068,15,0*64$GPGSV,4,4,13,32,09,139,,0*54$GBGSV,2,1,05,05,,,31,09,89,293,23,10,55,325,,13,16,175,26,0*40$GBGSV,2,2,05,22,,,24,0*74$GNGLL,1346.88708,N,10040.46350,E,132856.00,A,A*72$GNGST,132856.00,52,,,,3.1,3.4,14*6B$GNZDA,132856.00,19,11,2018,00,00*70$GNRMC,132857.00,A,1346.88708,N,10040.46346,E,0.051,,191118,,,A,V*12$GNVTG,,T,,M,0.051,N,0.094,K,A*34$GNGNS,132857.00,1346.88708,N,10040.46346,E,ANNA,09,0.90,-2.7,-27.4,,,V*15$GNGGA,132857.00,1346.88708,N,10040.46346,E,1,09,0.90,-2.7,M,-27.4,M,,*45$GNGSA,A,3,03,23,31,16,26,22,27,08,,,,,2.13,0.90,1.93,1*0D$GNGSA,A,3,13,,,,,,,,,,,,2.13,0.90,1.93,4*04$GPGSV,4,1,13,03,36,253,35,08,40,182,15,09,10,324,22,11,05,200,,0*6F$GPGSV,4,2,13,14,29,131,20,16,52,002,21,18,07,189,,22,34,227,17,0*67$GPGSV,4,3,13,23,35,327,34,26,30,026,29,27,59,138,31,31,20,068,15,0*65$GPGSV,4,4,13,32,09,139,,0*54$GBGSV,2,1,05,05,,,33,09,89,293,23,10,55,325,,13,16,175,25,0*41$GBGSV,2,2,05,22,,,26,0*76$GNGLL,1346.88708,N,10040.46346,E,132857.00,A,A*74$GNGST,132857.00,48,,,,3.1,3.4,14*61$GNZDA,132857.00,19,11,2018,00,00*71V*14$GNVTG,,T,,M,0.034,N,0.064,K,A*38$GNGNS,132858.00,1346.88707,N,10040.46343,E,ANNA,09,0.90,-2.5,-27.4,,,V*12$GNGGA,132858.00,1346.88707,N,10040.46343,E,1,09,0.90,-2.5,M,-27.4,M,,*42$GNGSA,A,3,03,23,31,16,26,22,27,08,,,,,2.13,0.90,1.93,1*0D$GNGSA,A,3,13,,,,,,,,,,,,2.13,0.90,1.93,4*04$GPGSV,4,1,13,03,36,253,34,08,40,182,16,09,10,324,22,11,05,200,18,0*64$GPGSV,4,2,13,14,29,131,19,16,52,002,22,18,07,189,,22,34,227,19,0*60$GPGSV,4,3,13,23,35,327,34,26,30,026,28,27,59,138,31,31,20,068,15,0*64$GPGSV,4,4,13,32,09,139,,0*54$GBGSV,2,1,05,05,,,33,09,89,293,23,10,55,325,,13,16,175,25,0*41$GBGSV,2,2,05,22,,,29,0*79$GNGLL,1346.88707,N,10040.46343,E,132858.00,A,A*71$GNGST,132858.00,48,,,,3.1,3.4,14*6E$GNZDA,132858.00,19,11,2018,00,00*7E$GNRMC,132859.00,A,1346.88702,N,10040.46344,E,0.123,,191118,,,A,V*10$GNVTG,,T,,M,0.123,N,0.229,K,A*34$GNGNS,132859.00,1346.88702,N,10040.46344,E,ANNA,09,0.90,-2.5,-27.4,,,V*11$GNGGA,132859.00,1346.88702,N,10040.46344,E,1,09,0.90,-2.5,M,-27.4,M,,*41$GNGSA,A,3,03,23,31,16,26,22,27,08,,,,,2.13,0.90,1.93,1*0D$GNGSA,A,3,13,,,,,,,,,,,,2.13,0.90,1.93,4*04$GPGSV,4,1,13,03,36,253,34,08,40,182,18,09,10,324,22,11,05,200,17,0*65$GPGSV,4,2,13,14,29,131,19,16,52,002,22,18,07,189,,22,34,227,19,0*60$GPGSV,4,3,13,23,35,327,34,26,30,026,29,27,59,138,30,31,20,068,17,0*66$GPGSV,4,4,13,32,09,139,,0*54$GBGSV,2,1,05,05,,,33,09,89,293,22,10,55,325,,13,16,175,25,0*40$GBGSV,2,2,05,22,,,29,0*79$GNGLL,1346.88702,N,10040.46344,E,132859.00,A,A*72$GNGST,132859.00,44,,,,3.1,3.5,14*62$GNZDA,132859.00,19,11,2018,00,00*7F$GNRMC,132900.00,A,1346.88695,N,10040.46345,E,0.063,,191118,,,A,V*16$GNVTG,,T,,M,0.063,N,0.117,K,A*3F$GNGNS,132900.00,1346.88695,N,10040.46345,E,ANNA,09,0.90,-2.8,-27.4,,,V*1F$GNGGA,132900.00,1346.88695,N,10040.46345,E,1,09,0.90,-2.8,M,-27.4,M,,*4F$GNGSA,A,3,03,23,31,16,26,22,27,08,,,,,2.13,0.90,1.93,1*0D$GNGSA,A,3,13,,,,,,,,,,,,2.13,0.90,1.93,4*04$GPGSV,4,1,13,03,36,253,34,08,40,182,18,09,10,324,22,11,05,200,17,0*65$GPGSV,4,2,13,14,29,131,,16,52,002,23,18,07,189,,22,34,227,18,0*68$GPGSV,4,3,13,23,35,327,34,26,30,026,29,27,59,138,30,31,20,068,17,0*66$GPGSV,4,4,13,32,09,139,,0*54$GBGSV,2,1,05,05,,,33,09,89,293,22,10,55,325,,13,16,175,25,0*40$GBGSV,2,2,05,22,,,28,0*78$GNGLL,1346.88695,N,10040.46345,E,132900.00,A,A*71$GNGST,132900.00,44,,,,3.2,3.5,14*6C$GNZDA,132900.00,19,11,2018,00,00*72$GNRMC,132901.00,A,1346.88692,N,10040.46349,E,0.145,,191118,,,A,V*19$GNVTG,,T,,M,0.145,N,0.269,K,A*30$GNGNS,132901.00,1346.88692,N,10040.46349,E,ANNA,09,0.90,-2.8,-27.4,,,V*15$GNGGA,132901.00,1346.88692,N,10040.46349,E,1,09,0.90,-2.8,M,-27.4,M,,*45$GNGSA,A,3,03,23,31,16,26,22,27,08,,,,,2.13,0.90,1.93,1*0D$GNGSA,A,3,13,,,,,,,,,,,,2.13,0.90,1.93,4*04$GPGSV,4,1,13,03,36,253,34,08,40,182,18,09,10,324,21,11,05,200,15,0*64$GPGSV,4,2,13,14,29,131,,16,52,002,23,18,07,189,,22,34,227,18,0*68$GPGSV,4,3,13,23,35,327,35,26,30,026,28,27,59,138,30,31,20,068,17,0*66$GPGSV,4,4,13,32,09,139,,0*54$GBGSV,2,2,05,22,,,26,0*76$GNGLL,1346.88692,N,10040.46349,E,132901.00,A,A*7B$GNGST,132901.00,44,,,,3.2,3.5,14*6D$GNZDA,132901.00,19,11,2018,00,00*73$GNRMC,132902.00,A,1346.88686,N,10040.46352,E,0.129,,191118,,,A,V*1F$GNVTG,,T,,M,0.129,N,0.238,K,A*3E$GNGNS,132902.00,1346.88686,N,10040.46352,E,ANNA,09,0.90,-2.9,-27.4,,,V*18$GNGGA,132902.00,1346.88686,N,10040.46352,E,1,09,0.90,-2.9,M,-27.4,M,,*48$GNGSA,A,3,03,23,31,16,26,22,27,08,,,,,2.13,0.90,1.93,1*0D$GNGSA,A,3,13,,,,,,,,,,,,2.13,0.90,1.93,4*04$GPGSV,4,1,13,03,36,253,34,08,40,182,18,09,10,324,21,11,05,200,15,0*64$GPGSV,4,2,13,14,29,131,,16,52,002,23,18,07,189,,22,34,227,17,0*67$GPGSV,4,3,13,23,35,327,35,26,30,026,28,27,59,138,30,31,20,068,19,0*68$GPGSV,4,4,13,32,09,139,,0*54$GBGSV,2,1,05,05,,,32,09,89,293,23,10,55,325,,13,16,175,27,0*42$GBGSV,2,2,05,22,,,25,0*75$GNGLL,1346.88686,N,10040.46352,E,132902.00,A,A*77$GNGST,132902.00,44,,,,3.2,3.5,14*6E$GNZDA,132902.00,19,11,2018,00,00*70$GNRMC,133450.00,A,1346.88364,N,10040.46162,E,0.078,,191118,,,D,V*1C
$GNVTG,,T,,M,0.078,N,0.145,K,D*37
$GNGNS,133450.00,1346.88364,N,10040.46162,E,DNNA,12,0.82,3.7,-27.4,,0000,V*35
$GNGGA,133450.00,1346.88364,N,10040.46162,E,2,12,0.82,3.7,M,-27.4,M,,0000*63
$GNGSA,A,3,03,41,23,31,16,26,22,40,27,08,,,1.83,0.82,1.64,1*0D
$GNGSA,A,3,13,05,,,,,,,,,,,1.83,0.82,1.64,4*00
$GPGSV,4,1,15,03,35,250,34,08,43,181,27,09,12,324,,11,06,199,18,0*62
$GPGSV,4,2,15,14,27,133,20,16,50,004,23,18,08,187,,22,33,224,28,0*62
$GPGSV,4,3,15,23,38,326,20,26,28,027,28,27,62,134,27,31,19,070,26,0*63
$GPGSV,4,4,15,32,07,140,,40,36,257,33,41,64,233,31,0*54
$GBGSV,2,1,07,05,39,253,37,09,88,237,23,10,54,326,15,13,16,175,26,0*73
$GBGSV,2,2,07,16,66,156,,22,,,39,30,,,32,0*4D
$GNGLL,1346.88364,N,10040.46162,E,133450.00,A,D*71
$GNGST,133450.00,1674,,,,4.2,3.1,12*64
$GNZDA,133450.00,19,11,2018,00,00*7B
$GNTXT,01,01,02,u-blox AG - www.u-blox.com*4E
$GNTXT,01,01,02,HW UBX-M8030 00080000*60
$GNTXT,01,01,02,FWVER=SPG 3.01*46
$GNTXT,01,01,02,PROTVER=18.00*11
$GNTXT,01,01,02,GPS;GLO;GAL;BDS*77
$GNTXT,01,01,02,SBAS;IMES;QZSS*49
$GNTXT,01,01,02,GNSS OTP=GPS;GLO*37
$GNTXT,01,01,02,LLC=FFFFFFFF-FFFFFFFF-FFFFFFFF-FFFFFFFF-FFFFFFFD*2F
$GNTXT,01,01,02,ANTSUPERV=AC SD PDoS SR*3E
$GNTXT,01,01,02,ANTSTATUS=OK*25
$GNTXT,01,01,02,PF=3FF*4B
V*1D
$GNVTG,,T,,M,0.077,N,0.143,K,D*3E
$GNGNS,133451.00,1346.88362,N,10040.46158,E,DNNA,12,0.82,3.4,-27.4,,0000,V*38
$GNGGA,133451.00,1346.88362,N,10040.46158,E,2,12,0.82,3.4,M,-27.4,M,,0000*6E
$GNGSA,A,3,03,41,23,31,16,26,22,40,27,08,,,1.83,0.82,1.64,1*0D
$GNGSA,A,3,13,05,,,,,,,,,,,1.83,0.82,1.64,4*00
$GPGSV,4,1,15,03,35,250,34,08,43,181,26,09,12,324,,11,06,199,19,0*62
$GPGSV,4,2,15,14,27,133,20,16,50,004,23,18,08,187,,22,33,224,28,0*62
$GPGSV,4,3,15,23,38,326,20,26,28,027,28,27,62,134,27,31,19,070,26,0*63
$GPGSV,4,4,15,32,07,140,,40,36,257,33,41,64,233,31,0*54
$GBGSV,2,1,07,05,39,253,37,09,88,237,22,10,54,326,14,13,16,175,26,0*73
$GBGSV,2,2,07,16,66,156,,22,,,39,30,,,32,0*4D
$GNGLL,1346.88362,N,10040.46158,E,133451.00,A,D*7F
$GNGST,133451.00,1674,,,,4.1,3.1,12*66
$GNZDA,133451.00,19,11,2018,00,00*7A
$GNRMC,133452.00,A,1346.88362,N,10040.46153,E,0.110,,191118,,,D,V*15
$GNVTG,,T,,M,0.110,N,0.205,K,D*3F
$GNGNS,133452.00,1346.88362,N,10040.46153,E,DNNA,12,0.82,3.1,-27.4,,0000,V*35
$GNGGA,133452.00,1346.88362,N,10040.46153,E,2,12,0.82,3.1,M,-27.4,M,,0000*63
$GNGSA,A,3,03,41,23,31,16,26,22,40,27,08,,,1.83,0.82,1.64,1*0D
$GNGSA,A,3,13,05,,,,,,,,,,,1.83,0.82,1.64,4*00
$GPGSV,4,1,15,03,35,250,34,08,43,181,27,09,12,324,,11,06,199,19,0*63
$GPGSV,4,2,15,14,27,133,20,16,50,004,22,18,08,187,,22,33,224,28,0*63
$GPGSV,4,3,15,23,38,326,19,26,28,027,28,27,62,134,27,31,19,070,26,0*69
$GPGSV,4,4,15,32,07,140,,40,36,257,33,41,64,233,31,0*54
$GBGSV,2,1,07,05,39,253,37,09,88,237,23,10,54,326,14,13,16,175,26,0*72
$GBGSV,2,2,07,16,66,156,,22,,,39,30,,,32,0*4D
$GNGLL,1346.88362,N,10040.46153,E,133452.00,A,D*77
$GNGST,133452.00,1674,,,,4.1,3.1,12*65
$GNZDA,133452.00,19,11,2018,00,00*79
$GNRMC,133453.00,A,1346.88360,N,10040.46150,E,0.126,,191118,,,D,V*10
$GNVTG,,T,,M,0.126,N,0.234,K,D*38
$GNGNS,133453.00,1346.88360,N,10040.46150,E,DNNA,12,0.82,2.7,-27.4,,0000,V*32
$GNGGA,133453.00,1346.88360,N,10040.46150,E,2,12,0.82,2.7,M,-27.4,M,,0000*64
$GNGSA,A,3,03,41,23,31,16,26,22,40,27,08,,,1.83,0.82,1.64,1*0D
$GNGSA,A,3,13,05,,,,,,,,,,,1.83,0.82,1.64,4*00
$GPGSV,4,1,15,03,35,250,34,08,43,181,27,09,12,324,,11,06,199,18,0*62
$GPGSV,4,2,15,14,27,133,20,16,50,004,21,18,08,187,,22,33,224,28,0*60
$GPGSV,4,3,15,23,38,326,20,26,28,027,28,27,62,134,28,31,19,070,26,0*6C
$GPGSV,4,4,15,32,07,140,,40,36,257,33,41,64,233,31,0*54
$GBGSV,2,1,07,05,39,253,37,09,88,234,23,10,54,326,14,13,16,175,26,0*71
$GBGSV,2,2,07,16,66,156,,22,,,39,30,,,32,0*4D
$GNGLL,1346.88360,N,10040.46150,E,133453.00,A,D*77
$GNGST,133453.00,1674,,,,4.0,3.1,12*65
$GNZDA,133453.00,19,11,2018,00,00*78
$GNRMC,133454.00,A,1346.88359,N,10040.46148,E,0.027,,191118,,,D,V*14
$GNVTG,,T,,M,0.027,N,0.050,K,D*38
$GNGNS,133454.00,1346.88359,N,10040.46148,E,DNNA,12,0.82,2.7,-27.4,,0000,V*36
$GNGGA,133454.00,1346.88359,N,10040.46148,E,2,12,0.82,2.7,M,-27.4,M,,0000*60
$GNGSA,A,3,03,41,23,31,16,26,22,40,27,08,,,1.83,0.82,1.64,1*0D
$GNGSA,A,3,13,05,,,,,,,,,,,1.83,0.82,1.64,4*00
$GPGSV,4,1,15,03,35,250,34,08,43,181,27,09,12,324,,11,06,199,19,0*63
$GPGSV,4,2,15,14,27,133,19,16,50,004,21,18,08,187,,22,33,224,28,0*6A
$GPGSV,4,3,15,23,38,326,20,26,28,027,29,27,62,134,28,31,19,070,26,0*6D
$GPGSV,4,4,15,32,07,140,,40,36,257,33,41,64,233,31,0*54
$GBGSV,2,1,07,05,39,253,37,09,88,234,23,10,54,326,14,13,16,175,26,0*71
$GBGSV,2,2,07,16,66,156,,22,,,39,30,,,32,0*4D
$GNGLL,1346.88359,N,10040.46148,E,133454.00,A,D*73
$GNGST,133454.00,1674,,,,4.0,3.0,12*63
$GNZDA,133454.00,19,11,2018,00,00*7F
$GNRMC,133455.00,A,1346.88357,N,10040.46147,E,0.053,,191118,,,D,V*17
$GNVTG,,T,,M,0.053,N,0.099,K,D*3E
$GNGNS,133455.00,1346.88357,N,10040.46147,E,DNNA,12,0.82,2.6,-27.4,,0000,V*37
$GNGGA,133455.00,1346.88357,N,10040.46147,E,2,12,0.82,2.6,M,-27.4,M,,0000*61
$GNGSA,A,3,03,41,23,31,16,26,22,40,27,08,,,1.83,0.82,1.64,1*0D
$GNGSA,A,3,13,05,,,,,,,,,,,1.83,0.82,1.64,4*00
$GPGSV,4,1,15,03,35,250,34,08,43,181,27,09,12,324,,11,06,199,20,0*69
$GPGSV,4,2,15,14,27,133,20,16,50,004,20,18,08,187,,22,33,224,28,0*61
$GPGSV,4,3,15,23,38,326,20,26,28,027,29,27,62,134,28,31,19,070,26,0*6D
$GPGSV,4,4,15,32,07,140,,40,36,257,33,41,64,233,31,0*54
$GBGSV,2,1,07,05,39,253,37,09,88,234,23,10,54,326,14,13,16,175,26,0*71
$GBGSV,2,2,07,16,66,156,,22,,,39,30,,,32,0*4D
$GNGLL,1346.88357,N,10040.46147,E,133455.00,A,D*73
$GNGST,133455.00,1674,,,,4.0,3.0,12*62
$GNZDA,133455.00,19,11,2018,00,00*7E
$GNRMC,133456.00,A,1346.88358,N,10040.46146,E,0.040,,191118,,,D,V*18
$GNVTG,,T,,M,0.040,N,0.075,K,D*3E
$GNGNS,133456.00,1346.88358,N,10040.46146,E,DNNA,12,0.82,2.7,-27.4,,0000,V*3B
$GNGGA,133456.00,1346.88358,N,10040.46146,E,2,12,0.82,2.7,M,-27.4,M,,0000*6D
$GNGSA,A,3,03,41,23,31,16,26,22,40,27,08,,,1.83,0.82,1.64,1*0D
$GNGSA,A,3,13,05,,,,,,,,,,,1.83,0.82,1.64,4*00
$GPGSV,4,1,15,03,35,250,34,08,43,181,27,09,12,324,,11,06,199,20,0*69
$GPGSV,4,2,15,14,27,133,19,16,50,004,20,18,08,187,,22,33,224,28,0*6B
$GPGSV,4,3,15,23,38,326,20,26,28,027,28,27,62,134,28,31,19,070,26,0*6C
$GPGSV,4,4,15,32,07,140,,40,36,257,33,41,64,233,31,0*54
$GBGSV,2,1,07,05,39,253,37,09,88,234,23,10,54,326,14,13,16,175,26,0*71
$GBGSV,2,2,07,16,66,156,,22,,,39,30,,,32,0*4D
$GNGLL,1346.88358,N,10040.46146,E,133456.00,A,D*7E
$GNGST,133456.00,1674,,,,3.9,3.0,12*6F
$GNZDA,133456.00,19,11,2018,00,00*7D
$GNRMC,133457.00,A,1346.88359,N,10040.46144,E,0.029,,191118,,,D,V*15
$GNVTG,,T,,M,0.029,N,0.055,K,D*33
$GNGNS,133457.00,1346.88359,N,10040.46144,E,DNNA,12,0.82,2.6,-27.4,,0000,V*38
$GNGGA,133457.00,1346.88359,N,10040.46144,E,2,12,0.82,2.6,M,-27.4,M,,0000*6E
$GNGSA,A,3,03,41,23,31,16,26,22,40,27,08,,,1.83,0.82,1.64,1*0D
$GNGSA,A,3,13,05,,,,,,,,,,,1.83,0.82,1.64,4*00
$GPGSV,4,1,15,03,35,250,34,08,43,181,27,09,12,324,,11,06,199,20,0*69
$GPGSV,4,2,15,14,27,133,19,16,50,004,20,18,08,187,,22,33,224,28,0*6B
$GPGSV,4,3,15,23,38,326,20,26,28,027,29,27,62,134,28,31,19,070,26,0*6D
$GPGSV,4,4,15,32,07,140,,40,36,257,32,41,64,233,31,0*55
$GBGSV,2,1,07,05,39,253,37,09,88,234,23,10,54,326,15,13,16,175,26,0*70
$GBGSV,2,2,07,16,66,156,,22,,,39,30,,,32,0*4D
$GNGLL,1346.88359,N,10040.46144,E,133457.00,A,D*7C
$GNGST,133457.00,1674,,,,3.9,3.0,12*6E
$GNZDA,133457.00,19,11,2018,00,00*7C
$GNRMC,133458.00,A,1346.88358,N,10040.46145,E,0.086,,191118,,,D,V*1F
$GNVTG,,T,,M,0.086,N,0.159,K,D*3B
$GNGNS,133458.00,1346.88358,N,10040.46145,E,DNNA,12,0.82,2.7,-27.4,,0000,V*36
$GNGGA,133458.00,1346.88358,N,10040.46145,E,2,12,0.82,2.7,M,-27.4,M,,0000*60
$GNGSA,A,3,03,41,23,31,16,26,22,40,27,08,,,1.83,0.82,1.64,1*0D
$GNGSA,A,3,13,05,,,,,,,,,,,1.83,0.82,1.64,4*00
$GPGSV,4,1,15,03,35,250,33,08,43,181,28,09,12,324,,11,06,199,20,0*61
$GPGSV,4,2,15,14,27,133,19,16,50,004,19,18,08,187,,22,33,224,29,0*60
$GPGSV,4,3,15,23,38,326,20,26,28,027,29,27,62,134,28,31,19,070,26,0*6D
$GPGSV,4,4,15,32,07,140,,40,36,257,32,41,64,233,32,0*56
$GBGSV,2,1,07,05,39,253,37,09,88,234,22,10,54,326,15,13,16,175,26,0*71
$GBGSV,2,2,07,16,66,156,,22,,,39,30,,,32,0*4D
$GNGLL,1346.88358,N,10040.46145,E,133458.00,A,D*73
$GNGST,133458.00,1674,,,,3.9,3.0,12*61
$GNZDA,133458.00,19,11,2018,00,00*73
$GNRMC,133459.00,A,1346.88359,N,10040.46145,E,0.068,,191118,,,D,V*1F
$GNVTG,,T,,M,0.068,N,0.126,K,D*33
$GNGNS,133459.00,1346.88359,N,10040.46145,E,DNNA,12,0.82,2.6,-27.4,,0000,V*37
$GNGGA,133459.00,1346.88359,N,10040.46145,E,2,12,0.82,2.6,M,-27.4,M,,0000*61
$GNGSA,A,3,03,41,23,31,16,26,22,40,27,08,,,1.83,0.82,1.64,1*0D
$GNGSA,A,3,13,05,,,,,,,,,,,1.83,0.82,1.64,4*00
$GPGSV,4,1,15,03,35,250,33,08,43,181,28,09,12,324,,11,06,199,20,0*61
$GPGSV,4,2,15,14,27,133,19,16,50,004,19,18,08,187,,22,33,224,29,0*60
$GPGSV,4,3,15,23,38,326,20,26,28,027,29,27,62,134,28,31,19,070,26,0*6D
$GPGSV,4,4,15,32,07,140,,40,36,257,32,41,64,233,32,0*56
$GBGSV,2,1,07,05,39,253,37,09,88,234,22,10,54,326,15,13,16,175,26,0*71
$GBGSV,2,2,07,16,66,156,,22,,,39,30,,,32,0*4D
$GNGLL,1346.88359,N,10040.46145,E,133459.00,A,D*73
$GNGST,133459.00,1674,,,,3.8,2.9,11*6A
$GNZDA,133459.00,19,11,2018,00,00*72
$GNRMC,133500.00,A,1346.88361,N,10040.46142,E,0.056,,191118,,,D,V*13
$GNVTG,,T,,M,0.056,N,0.103,K,D*39
$GNGNS,133500.00,1346.88361,N,10040.46142,E,DNNA,12,0.82,2.4,-27.4,,0000,V*34
$GNGGA,133500.00,1346.88361,N,10040.46142,E,2,12,0.82,2.4,M,-27.4,M,,0000*62
$GNGSA,A,3,03,41,23,31,16,26,22,40,27,08,,,1.83,0.82,1.64,1*0D
$GNGSA,A,3,13,05,,,,,,,,,,,1.83,0.82,1.64,4*00
$GPGSV,4,1,15,03,35,250,33,08,43,181,28,09,12,324,,11,06,199,20,0*61
$GPGSV,4,2,15,14,27,133,19,16,50,004,20,18,08,187,,22,33,224,29,0*6A
$GPGSV,4,3,15,23,38,326,20,26,28,027,29,27,62,134,28,31,19,070,26,0*6D
$GPGSV,4,4,15,32,07,140,,40,36,257,32,41,64,233,31,0*55
$GBGSV,2,1,07,05,39,253,37,09,88,234,23,10,54,326,15,13,16,175,26,0*70
$GBGSV,2,2,07,16,66,156,,22,,,39,30,,,32,0*4D
$GNGLL,1346.88361,N,10040.46142,E,133500.00,A,D*72
$GNGST,133500.00,1674,,,,3.8,2.9,11*67
$GNZDA,133500.00,19,11,2018,00,00*7F
$GNRMC,133501.00,A,1346.88359,N,10040.46140,E,0.124,,191118,,,D,V*1F
$GNVTG,,T,,M,0.124,N,0.231,K,D*3F
$GNGNS,133501.00,1346.88359,N,10040.46140,E,DNNA,12,0.82,2.2,-27.4,,0000,V*3A
$GNGGA,133501.00,1346.88359,N,10040.46140,E,2,12,0.82,2.2,M,-27.4,M,,0000*6C
$GNGSA,A,3,03,41,23,31,16,26,22,40,27,08,,,1.83,0.82,1.64,1*0D
$GNGSA,A,3,13,05,,,,,,,,,,,1.83,0.82,1.64,4*00
$GPGSV,4,1,15,03,35,250,34,08,43,181,27,09,12,324,,11,06,199,20,0*69
$GPGSV,4,2,15,14,27,133,19,16,50,004,20,18,08,187,,22,33,224,29,0*6A
$GPGSV,4,3,15,23,38,326,20,26,28,027,29,27,62,134,28,31,19,070,26,0*6D
$GPGSV,4,4,15,32,07,140,,40,36,257,32,41,64,233,31,0*55
$GBGSV,2,1,07,05,39,253,37,09,88,234,23,10,54,326,14,13,16,175,26,0*71
$GBGSV,2,2,07,16,66,156,,22,,,39,30,,,32,0*4D
$GNGLL,1346.88359,N,10040.46140,E,133501.00,A,D*7A
$GNGST,133501.00,1674,,,,3.8,2.9,11*66
$GNZDA,133501.00,19,11,2018,00,00*7E
$GNRMC,133502.00,A,1346.88355,N,10040.46140,E,0.093,,191118,,,D,V*1D
$GNVTG,,T,,M,0.093,N,0.172,K,D*36
$GNGNS,133502.00,1346.88355,N,10040.46140,E,DNNA,12,0.82,2.1,-27.4,,0000,V*36
$GNGGA,133502.00,1346.88355,N,10040.46140,E,2,12,0.82,2.1,M,-27.4,M,,0000*60
$GNGSA,A,3,03,41,23,31,16,26,22,40,27,08,,,1.83,0.82,1.64,1*0D
$GNGSA,A,3,13,05,,,,,,,,,,,1.83,0.82,1.64,4*00
$GPGSV,4,1,15,03,35,250,33,08,43,181,28,09,12,324,,11,06,199,20,0*61
$GPGSV,4,2,15,14,27,133,18,16,50,004,19,18,08,187,,22,33,224,29,0*61
$GPGSV,4,3,15,23,38,326,21,26,28,027,29,27,62,134,28,31,19,070,26,0*6C
$GPGSV,4,4,15,32,07,140,,40,36,257,32,41,64,233,31,0*55
$GBGSV,2,1,07,05,39,253,37,09,88,234,23,10,54,326,14,13,16,175,25,0*72
$GBGSV,2,2,07,16,66,156,,22,,,39,30,,,32,0*4D
$GNGLL,1346.88355,N,10040.46140,E,133502.00,A,D*75
$GNGST,133502.00,1674,,,,3.7,2.9,11*6A
$GNZDA,133502.00,19,11,2018,00,00*7D
V*14
$GNVTG,,T,,M,0.027,N,0.049,K,D*30
$GNGNS,133503.00,1346.88352,N,10040.46137,E,DNNA,12,0.82,2.0,-27.4,,0000,V*31
$GNGGA,133503.00,1346.88352,N,10040.46137,E,2,12,0.82,2.0,M,-27.4,M,,0000*67
$GNGSA,A,3,03,41,23,31,16,26,22,40,27,08,,,1.83,0.82,1.64,1*0D
$GNGSA,A,3,13,05,,,,,,,,,,,1.83,0.82,1.64,4*00
$GPGSV,4,1,15,03,35,250,32,08,43,181,29,09,12,324,,11,06,199,21,0*60
$GPGSV,4,2,15,14,27,133,19,16,50,004,19,18,08,187,,22,33,224,28,0*61
$GPGSV,4,3,15,23,38,326,22,26,28,027,29,27,62,134,29,31,19,070,26,0*6E
$GPGSV,4,4,15,32,07,140,,40,36,257,32,41,64,233,32,0*56
$GBGSV,2,1,08,05,39,253,36,09,88,234,23,10,54,326,13,13,16,175,26,0*78
$GBGSV,2,2,08,16,66,156,,20,,,20,22,,,39,30,,,32,0*42
$GNGLL,1346.88352,N,10040.46137,E,133503.00,A,D*73
$GNGST,133503.00,1674,,,,3.7,2.9,11*6B
$GNZDA,133503.00,19,11,2018,00,00*7C
$GNRMC,133504.00,A,1346.88347,N,10040.46136,E,0.084,,191118,,,D,V*1F
$GNVTG,,T,,M,0.084,N,0.155,K,D*35
$GNGNS,133504.00,1346.88347,N,10040.46136,E,DNNA,12,0.82,1.9,-27.4,,0000,V*39
$GNGGA,133504.00,1346.88347,N,10040.46136,E,2,12,0.82,1.9,M,-27.4,M,,0000*6F
$GNGSA,A,3,03,41,23,31,16,26,22,40,27,08,,,1.83,0.82,1.64,1*0D
$GNGSA,A,3,13,05,,,,,,,,,,,1.83,0.82,1.64,4*00
$GPGSV,4,1,15,03,35,250,32,08,43,181,29,09,12,324,,11,06,199,21,0*60
$GPGSV,4,2,15,14,27,133,19,16,50,004,19,18,08,187,,22,33,224,28,0*61
$GPGSV,4,3,15,23,38,326,22,26,28,027,30,27,62,134,29,31,19,070,26,0*66
$GPGSV,4,4,15,32,07,140,,40,36,257,32,41,64,233,32,0*56
$GBGSV,2,1,07,05,39,253,37,09,88,234,23,10,54,326,13,13,16,175,26,0*76
$GBGSV,2,2,07,16,66,156,,22,,,39,30,,,32,0*4D
$GNGLL,1346.88347,N,10040.46136,E,133504.00,A,D*71
$GNGST,133504.00,1674,,,,3.7,2.9,11*6C
$GNZDA,133504.00,19,11,2018,00,00*7B
V*1F
$GNVTG,,T,,M,0.042,N,0.079,K,D*30
$GNGNS,133505.00,1346.88348,N,10040.46132,E,DNNA,12,0.82,1.8,-27.4,,0000,V*32
$GNGGA,133505.00,1346.88348,N,10040.46132,E,2,12,0.82,1.8,M,-27.4,M,,0000*64
$GNGSA,A,3,03,41,23,31,16,26,22,40,27,08,,,1.83,0.82,1.64,1*0D
$GNGSA,A,3,13,05,,,,,,,,,,,1.83,0.82,1.64,4*00
$GPGSV,4,1,15,03,35,250,33,08,43,181,29,09,12,324,,11,06,199,22,0*62
$GPGSV,4,2,15,14,27,133,19,16,50,004,20,18,08,187,,22,33,224,28,0*6B
$GPGSV,4,3,15,23,38,326,21,26,28,027,30,27,62,134,28,31,19,070,26,0*64
$GPGSV,4,4,15,32,07,140,,40,36,257,32,41,64,233,32,0*56
$GBGSV,2,1,07,05,39,253,37,09,88,234,23,10,54,326,12,13,16,175,26,0*77
$GBGSV,2,2,07,16,66,156,,22,,,39,30,,,33,0*4C
$GNGLL,1346.88348,N,10040.46132,E,133505.00,A,D*7B
$GNGST,133505.00,1674,,,,3.7,2.8,11*6C
$GNZDA,133505.00,19,11,2018,00,00*7A
$GNRMC,133506.00,A,1346.88345,N,10040.46130,E,0.079,,191118,,,D,V*1B
$GNVTG,,T,,M,0.079,N,0.147,K,D*34
$GNGNS,133506.00,1346.88345,N,10040.46130,E,DNNA,12,0.82,1.8,-27.4,,0000,V*3E
$GNGGA,133506.00,1346.88345,N,10040.46130,E,2,12,0.82,1.8,M,-27.4,M,,0000*68
$GNGSA,A,3,03,41,23,31,16,26,22,40,27,08,,,1.83,0.82,1.64,1*0D
$GNGSA,A,3,13,05,,,,,,,,,,,1.83,0.82,1.64,4*00
$GPGSV,4,1,15,03,35,250,33,08,43,181,29,09,12,324,,11,06,199,22,0*62
$GPGSV,4,2,15,14,27,133,19,16,50,004,20,18,08,187,,22,33,224,28,0*6B
$GPGSV,4,3,15,23,38,326,21,26,28,027,30,27,62,134,29,31,19,070,27,0*64
$GPGSV,4,4,15,32,07,140,,40,36,257,32,41,64,233,31,0*55
$GBGSV,2,1,07,05,39,253,37,09,88,234,22,10,54,326,,13,16,175,26,0*75
$GBGSV,2,2,07,16,66,156,,22,,,39,30,,,33,0*4C
$GNGLL,1346.88345,N,10040.46130,E,133506.00,A,D*77
$GNZDA,133506.00,19,11,2018,00,00*79
$GNRMC,133507.00,A,1346.88341,N,10040.46126,E,0.008,,191118,,,D,V*1F
$GNVTG,,T,,M,0.008,N,0.015,K,D*34
$GNGNS,133507.00,1346.88341,N,10040.46126,E,DNNA,12,0.82,1.9,-27.4,,0000,V*3D
$GNGGA,133507.00,1346.88341,N,10040.46126,E,2,12,0.82,1.9,M,-27.4,M,,0000*6B
$GNGSA,A,3,03,41,23,31,16,26,22,40,27,08,,,1.83,0.82,1.64,1*0D
$GNGSA,A,3,13,05,,,,,,,,,,,1.83,0.82,1.64,4*00
$GPGSV,4,1,15,03,35,250,32,08,43,181,30,09,12,324,,11,06,199,22,0*6B
$GPGSV,4,2,15,14,27,133,19,16,50,004,20,18,08,187,,22,33,224,28,0*6B
$GPGSV,4,3,15,23,38,326,21,26,28,027,30,27,62,134,29,31,19,070,27,0*64
$GPGSV,4,4,15,32,07,140,,40,36,257,32,41,64,233,31,0*55
$GBGSV,2,1,07,05,39,253,37,09,88,234,23,10,54,326,,13,16,175,27,0*75
$GBGSV,2,2,07,16,66,156,,22,,,39,30,,,33,0*4C
$GNGLL,1346.88341,N,10040.46126,E,133507.00,A,D*75
$GNGST,133507.00,1674,,,,3.6,2.8,11*6F
$GNZDA,133507.00,19,11,2018,00,00*78
$GNRMC,133508.00,A,1346.88340,N,10040.46122,E,0.145,,191118,,,D,V*1D
$GNVTG,,T,,M,0.145,N,0.268,K,D*34
$GNGNS,133508.00,1346.88340,N,10040.46122,E,DNNA,12,0.82,1.8,-27.4,,0000,V*36
$GNGGA,133508.00,1346.88340,N,10040.46122,E,2,12,0.82,1.8,M,-27.4,M,,0000*60
$GNGSA,A,3,03,41,23,31,16,26,22,40,27,08,,,1.83,0.82,1.64,1*0D
$GNGSA,A,3,13,05,,,,,,,,,,,1.83,0.82,1.64,4*00
$GPGSV,4,1,15,03,35,250,32,08,43,181,30,09,12,324,,11,06,199,21,0*68
$GPGSV,4,2,15,14,27,133,19,16,50,004,19,18,08,187,,22,33,224,28,0*61
$GPGSV,4,3,15,23,38,326,22,26,28,027,30,27,62,134,29,31,19,070,27,0*67
$GPGSV,4,4,15,32,07,140,,40,36,257,32,41,64,233,31,0*55
$GBGSV,2,1,07,05,39,253,37,09,88,234,23,10,54,326,,13,16,175,26,0*74
$GBGSV,2,2,07,16,66,156,,22,,,39,30,,,33,0*4C
$GNGLL,1346.88340,N,10040.46122,E,133508.00,A,D*7F
$GNGST,133508.00,1674,,,,3.6,2.8,11*60
$GNZDA,133508.00,19,11,2018,00,00*77
$GNRMC,133509.00,A,1346.88338,N,10040.46120,E,0.041,,191118,,,D,V*14
$GNVTG,,T,,M,0.041,N,0.076,K,D*3C
$GNGNS,133509.00,1346.88338,N,10040.46120,E,DNNA,12,0.82,1.9,-27.4,,0000,V*3B
$GNGGA,133509.00,1346.88338,N,10040.46120,E,2,12,0.82,1.9,M,-27.4,M,,0000*6D
$GNGSA,A,3,03,41,23,31,16,26,22,40,27,08,,,1.83,0.82,1.64,1*0D
$GNGSA,A,3,13,05,,,,,,,,,,,1.83,0.82,1.64,4*00
$GPGSV,4,1,15,03,35,250,32,08,43,181,31,09,12,324,,11,06,199,21,0*69
$GPGSV,4,2,15,14,27,133,18,16,50,004,19,18,08,187,,22,33,224,28,0*60
$GPGSV,4,3,15,23,38,326,21,26,28,027,30,27,62,134,29,31,19,070,27,0*64
$GPGSV,4,4,15,32,07,140,,40,36,257,32,41,64,233,31,0*55
$GBGSV,2,1,07,05,39,253,37,09,88,234,22,10,54,326,,13,16,175,26,0*75
$GBGSV,2,2,07,16,66,156,,22,,,39,30,,,33,0*4C
$GNGLL,1346.88338,N,10040.46120,E,133509.00,A,D*73
$GNGST,133509.00,1674,,,,3.5,2.8,11*62
$GNZDA,133509.00,19,11,2018,00,00*76
$GNRMC,133510.00,A,1346.88336,N,10040.46116,E,0.028,,191118,,,D,V*18
$GNVTG,,T,,M,0.028,N,0.052,K,D*35
$GNGNS,133510.00,1346.88336,N,10040.46116,E,DNNA,12,0.82,2.0,-27.4,,0000,V*32
$GNGGA,133510.00,1346.88336,N,10040.46116,E,2,12,0.82,2.0,M,-27.4,M,,0000*64
$GNGSA,A,3,03,41,23,31,16,26,22,40,27,08,,,1.83,0.82,1.64,1*0D
$GNGSA,A,3,13,05,,,,,,,,,,,1.83,0.82,1.64,4*00
$GPGSV,4,1,15,03,35,250,32,08,43,181,31,09,12,324,,11,06,199,21,0*69
$GPGSV,4,2,15,14,27,133,19,16,50,004,19,18,08,187,,22,33,224,28,0*61
$GPGSV,4,3,15,23,38,326,20,26,28,027,30,27,62,134,29,31,19,070,27,0*65
$GPGSV,4,4,15,32,07,140,,40,36,257,32,41,64,233,31,0*55
$GBGSV,2,1,07,05,39,253,37,09,88,234,22,10,54,326,,13,16,175,26,0*75
$GBGSV,2,2,07,16,66,156,,22,,,39,30,,,33,0*4C
$GNGLL,1346.88336,N,10040.46116,E,133510.00,A,D*70
$GNGST,133510.00,1674,,,,3.5,2.8,11*6A
$GNZDA,133510.00,19,11,2018,00,00*7E
$GNRMC,133511.00,A,1346.88337,N,10040.46110,E,0.101,,191118,,,D,V*14
$GNVTG,,T,,M,0.101,N,0.187,K,D*36
$GNGNS,133511.00,1346.88337,N,10040.46110,E,DNNA,12,0.82,2.0,-27.4,,0000,V*34
$GNGGA,133511.00,1346.88337,N,10040.46110,E,2,12,0.82,2.0,M,-27.4,M,,0000*62
$GNGSA,A,3,03,41,23,31,16,26,22,40,27,08,,,1.83,0.82,1.64,1*0D
$GNGSA,A,3,13,05,,,,,,,,,,,1.83,0.82,1.64,4*00
$GPGSV,4,1,15,03,35,250,32,08,43,181,31,09,12,324,,11,06,199,21,0*69
$GPGSV,4,2,15,14,27,133,18,16,50,004,20,18,08,187,,22,33,224,27,0*65
$GPGSV,4,3,15,23,38,326,20,26,28,027,30,27,62,134,29,31,19,070,28,0*6A
$GPGSV,4,4,15,32,07,140,,40,36,257,32,41,64,233,31,0*55
$GBGSV,2,1,07,05,39,253,37,09,88,234,23,10,54,326,,13,16,175,26,0*74
$GBGSV,2,2,07,16,66,156,,22,,,39,30,,,33,0*4C
$GNGLL,1346.88337,N,10040.46110,E,133511.00,A,D*76
$GNGST,133511.00,1674,,,,3.5,2.7,10*65
$GNZDA,133511.00,19,11,2018,00,00*7F
$GNRMC,133512.00,A,1346.88336,N,10040.46105,E,0.065,,191118,,,D,V*11
$GNVTG,,T,,M,0.065,N,0.121,K,D*39
$GNGNS,133512.00,1346.88336,N,10040.46105,E,DNNA,12,0.82,1.9,-27.4,,0000,V*38
$GNGGA,133512.00,1346.88336,N,10040.46105,E,2,12,0.82,1.9,M,-27.4,M,,0000*6E
$GNGSA,A,3,03,41,23,31,16,26,22,40,27,08,,,1.83,0.82,1.64,1*0D
$GNGSA,A,3,13,05,,,,,,,,,,,1.83,0.82,1.64,4*00
$GPGSV,4,1,15,03,35,250,31,08,43,181,30,09,12,324,,11,06,199,21,0*6B
$GPGSV,4,2,15,14,27,133,18,16,50,004,20,18,08,187,,22,33,224,28,0*6A
$GPGSV,4,3,15,23,38,326,20,26,28,027,30,27,62,134,29,31,19,070,28,0*6A
$GPGSV,4,4,15,32,07,140,,40,36,257,32,41,64,233,31,0*55
$GBGSV,2,1,07,05,39,253,37,09,88,234,23,10,54,326,,13,16,175,26,0*74
$GBGSV,2,2,07,16,66,156,,22,,,39,30,,,33,0*4C
$GNGLL,1346.88336,N,10040.46105,E,133512.00,A,D*70
$GNGST,133512.00,1674,,,,3.5,2.7,10*66
$GNZDA,133512.00,19,11,2018,00,00*7C
$GNRMC,133513.00,A,1346.88334,N,10040.46102,E,0.023,,191118,,,D,V*17
$GNVTG,,T,,M,0.023,N,0.042,K,D*3F
$GNGNS,133513.00,1346.88334,N,10040.46102,E,DNNA,12,0.82,1.9,-27.4,,0000,V*3C
$GNGGA,133513.00,1346.88334,N,10040.46102,E,2,12,0.82,1.9,M,-27.4,M,,0000*6A
$GNGSA,A,3,03,41,23,31,16,26,22,40,27,08,,,1.83,0.82,1.64,1*0D
$GNGSA,A,3,13,05,,,,,,,,,,,1.83,0.82,1.64,4*00
$GPGSV,4,1,15,03,35,250,31,08,43,181,31,09,12,324,,11,06,199,21,0*6A
$GPGSV,4,2,15,14,27,133,17,16,50,004,19,18,08,187,,22,33,224,28,0*6F
$GPGSV,4,3,15,23,38,326,19,26,28,027,30,27,62,134,29,31,19,070,28,0*60
$GPGSV,4,4,15,32,07,140,,40,36,257,32,41,64,233,31,0*55
$GBGSV,2,1,07,05,39,253,37,09,88,234,23,10,54,326,,13,16,175,26,0*74
$GBGSV,2,2,07,16,66,156,,22,,,39,30,,,33,0*4C
$GNGLL,1346.88334,N,10040.46102,E,133513.00,A,D*74
$GNGST,133513.00,1674,,,,3.4,2.7,10*66
$GNZDA,133513.00,19,11,2018,00,00*7D
$GNRMC,133514.00,A,1346.88332,N,10040.46097,E,0.041,,191118,,,D,V*1F
$GNVTG,,T,,M,0.041,N,0.076,K,D*3C
$GNGNS,133514.00,1346.88332,N,10040.46097,E,DNNA,12,0.82,2.0,-27.4,,0000,V*3A
$GNGGA,133514.00,1346.88332,N,10040.46097,E,2,12,0.82,2.0,M,-27.4,M,,0000*6C
$GNGSA,A,3,03,41,23,31,16,26,22,40,27,08,,,1.83,0.82,1.64,1*0D
$GNGSA,A,3,13,05,,,,,,,,,,,1.83,0.82,1.64,4*00
$GPGSV,4,1,15,03,35,250,32,08,43,181,30,09,12,324,,11,06,199,21,0*68
$GPGSV,4,2,15,14,27,133,18,16,50,004,19,18,08,187,,22,33,224,27,0*6F
$GPGSV,4,3,15,23,38,326,19,26,28,027,30,27,62,134,29,31,19,070,28,0*60
$GPGSV,4,4,15,32,07,140,,40,36,257,32,41,64,233,31,0*55
$GBGSV,2,1,07,05,39,253,37,09,88,234,23,10,54,326,,13,16,175,26,0*74
$GBGSV,2,2,07,16,66,156,,22,,,39,30,,,33,0*4C
$GNGLL,1346.88332,N,10040.46097,E,133514.00,A,D*78
$GNGST,133514.00,1674,,,,3.4,2.7,10*61
$GNZDA,133514.00,19,11,2018,00,00*7A
$GNRMC,133515.00,A,1346.88331,N,10040.46094,E,0.085,,191118,,,D,V*16
$GNVTG,,T,,M,0.085,N,0.158,K,D*39
$GNGNS,133515.00,1346.88331,N,10040.46094,E,DNNA,12,0.82,2.1,-27.4,,0000,V*3A
$GNGGA,133515.00,1346.88331,N,10040.46094,E,2,12,0.82,2.1,M,-27.4,M,,0000*6C
$GNGSA,A,3,03,41,23,31,16,26,22,40,27,08,,,1.83,0.82,1.64,1*0D
$GNGSA,A,3,13,05,,,,,,,,,,,1.83,0.82,1.64,4*00
$GPGSV,4,1,15,03,35,250,31,08,43,181,31,09,12,324,,11,06,199,22,0*69
$GPGSV,4,2,15,14,27,133,19,16,50,004,18,18,08,187,,22,33,224,27,0*6F
$GPGSV,4,3,15,23,38,326,20,26,28,027,30,27,62,134,28,31,19,070,28,0*6B
$GPGSV,4,4,15,32,07,140,,40,36,257,32,41,64,233,31,0*55
$GBGSV,2,1,07,05,39,253,37,09,88,234,22,10,54,326,,13,16,175,26,0*75
$GBGSV,2,2,07,16,66,156,,22,,,40,30,,,33,0*42
$GNGLL,1346.88331,N,10040.46094,E,133515.00,A,D*79
$GNGST,133515.00,1674,,,,3.4,2.7,10*60
$GNZDA,133515.00,19,11,2018,00,00*7B
$GNRMC,133516.00,A,1346.88329,N,10040.46090,E,0.079,,191118,,,D,V*1B
$GNVTG,,T,,M,0.079,N,0.146,K,D*35
$GNGNS,133516.00,1346.88329,N,10040.46090,E,DNNA,12,0.82,2.3,-27.4,,0000,V*36
$GNGGA,133516.00,1346.88329,N,10040.46090,E,2,12,0.82,2.3,M,-27.4,M,,0000*60
$GNGSA,A,3,03,41,23,31,16,26,22,40,27,08,,,1.83,0.82,1.64,1*0D
$GNGSA,A,3,13,05,,,,,,,,,,,1.83,0.82,1.64,4*00
$GPGSV,4,1,15,03,35,250,30,08,43,181,31,09,12,324,,11,06,199,22,0*68
$GPGSV,4,2,15,14,27,133,19,16,50,004,18,18,08,187,,22,33,224,27,0*6F
$GPGSV,4,3,15,23,38,326,20,26,28,027,29,27,62,134,29,31,19,070,27,0*6D
$GPGSV,4,4,15,32,07,140,,40,36,257,31,41,64,233,31,0*56
$GBGSV,2,1,07,05,39,253,37,09,88,234,22,10,54,326,,13,16,175,26,0*75
$GBGSV,2,2,07,16,66,156,,22,,,40,30,,,33,0*42
$GNGLL,1346.88329,N,10040.46090,E,133516.00,A,D*77
$GNGST,133516.00,1674,,,,3.4,2.7,10*63
$GNZDA,133516.00,19,11,2018,00,00*78
$GNRMC,133517.00,A,1346.88326,N,10040.46086,E,0.046,,191118,,,D,V*1E
$GNVTG,,T,,M,0.046,N,0.085,K,D*37
$GNGNS,133517.00,1346.88326,N,10040.46086,E,DNNA,12,0.82,2.3,-27.4,,0000,V*3F
$GNGGA,133517.00,1346.88326,N,10040.46086,E,2,12,0.82,2.3,M,-27.4,M,,0000*69
$GNGSA,A,3,03,41,23,31,16,26,22,40,27,08,,,1.83,0.82,1.64,1*0D
$GNGSA,A,3,13,05,,,,,,,,,,,1.83,0.82,1.64,4*00
$GPGSV,4,1,15,03,35,250,30,08,43,181,31,09,12,324,,11,06,199,22,0*68
$GPGSV,4,2,15,14,27,133,20,16,50,004,18,18,08,187,,22,33,224,27,0*65
$GPGSV,4,3,15,23,38,326,20,26,28,027,29,27,62,134,29,31,19,070,27,0*6D
$GPGSV,4,4,15,32,07,140,,40,36,257,31,41,64,233,31,0*56
$GBGSV,2,1,07,05,39,253,37,09,88,234,22,10,54,326,,13,16,175,26,0*75
$GBGSV,2,2,07,16,66,156,,22,,,40,30,,,33,0*42
$GNGLL,1346.88326,N,10040.46086,E,133517.00,A,D*7E
$GNGST,133517.00,1674,,,,3.4,2.7,10*62
$GNZDA,133517.00,19,11,2018,00,00*79
$GNRMC,133518.00,A,1346.88322,N,10040.46083,E,0.040,,191118,,,D,V*16
$GNVTG,,T,,M,0.040,N,0.074,K,D*3F
$GNGNS,133518.00,1346.88322,N,10040.46083,E,DNNA,12,0.82,2.4,-27.4,,0000,V*36
$GNGGA,133518.00,1346.88322,N,10040.46083,E,2,12,0.82,2.4,M,-27.4,M,,0000*60
$GNGSA,A,3,03,41,23,31,16,26,22,40,27,08,,,1.83,0.82,1.64,1*0D
$GNGSA,A,3,13,05,,,,,,,,,,,1.83,0.82,1.64,4*00
$GPGSV,4,1,15,03,35,250,30,08,43,181,31,09,12,324,,11,06,199,21,0*6B
$GPGSV,4,2,15,14,27,133,19,16,50,004,18,18,08,187,,22,33,224,27,0*6F
$GPGSV,4,3,15,23,38,326,20,26,28,027,30,27,62,134,29,31,19,070,28,0*6A
$GPGSV,4,4,15,32,07,140,,40,36,257,31,41,64,233,31,0*56
$GBGSV,2,1,07,05,39,253,37,09,88,234,22,10,54,326,,13,16,175,26,0*75
$GBGSV,2,2,07,16,66,156,,22,,,40,30,,,33,0*42
$GNGLL,1346.88322,N,10040.46083,E,133518.00,A,D*70
$GNGST,133518.00,1674,,,,3.3,2.7,10*6A
$GNZDA,133518.00,19,11,2018,00,00*76
$GNRMC,133519.00,A,1346.88321,N,10040.46079,E,0.031,,191118,,,D,V*17
$GNVTG,,T,,M,0.031,N,0.058,K,D*37
$GNGNS,133519.00,1346.88321,N,10040.46079,E,DNNA,12,0.82,2.5,-27.4,,0000,V*30
$GNGGA,133519.00,1346.88321,N,10040.46079,E,2,12,0.82,2.5,M,-27.4,M,,0000*66
$GNGSA,A,3,03,41,23,31,16,26,22,40,27,08,,,1.83,0.82,1.64,1*0D
$GNGSA,A,3,13,05,,,,,,,,,,,1.83,0.82,1.64,4*00
$GPGSV,4,1,15,03,35,250,30,08,43,181,31,09,12,324,,11,06,199,21,0*6B
$GPGSV,4,2,15,14,27,133,18,16,50,004,19,18,08,187,,22,33,224,27,0*6F
$GPGSV,4,3,15,23,38,326,20,26,28,027,30,27,62,134,28,31,19,070,28,0*6B
$GPGSV,4,4,15,32,07,140,,40,36,257,31,41,64,233,31,0*56
$GBGSV,2,1,07,05,39,253,36,09,88,234,22,10,54,326,,13,16,175,26,0*74
$GBGSV,2,2,07,16,66,156,,22,,,39,30,,,33,0*4C
$GNGLL,1346.88321,N,10040.46079,E,133519.00,A,D*77
$GNGST,133519.00,1674,,,,3.3,2.7,10*6B
$GNZDA,133519.00,19,11,2018,00,00*77
$GNRMC,133520.00,A,1346.88319,N,10040.46074,E,0.067,,191118,,,D,V*18
$GNVTG,,T,,M,0.067,N,0.124,K,D*3E
$GNGNS,133520.00,1346.88319,N,10040.46074,E,DNNA,12,0.82,2.4,-27.4,,0000,V*3D
$GNGGA,133520.00,1346.88319,N,10040.46074,E,2,12,0.82,2.4,M,-27.4,M,,0000*6B
$GNGSA,A,3,03,41,23,31,16,26,22,40,27,08,,,1.83,0.82,1.64,1*0D
$GNGSA,A,3,13,05,,,,,,,,,,,1.83,0.82,1.64,4*00
$GPGSV,4,1,15,03,35,250,30,08,43,181,31,09,12,324,,11,06,199,21,0*6B
$GPGSV,4,2,15,14,27,133,18,16,50,004,19,18,08,187,,22,33,224,27,0*6F
$GPGSV,4,3,15,23,38,326,19,26,28,027,30,27,62,134,28,31,19,070,28,0*61
$GPGSV,4,4,15,32,07,140,,40,36,257,31,41,64,233,31,0*56
$GBGSV,2,1,07,05,39,253,37,09,88,234,22,10,54,326,,13,16,175,26,0*75
$GBGSV,2,2,07,16,66,156,,22,,,39,30,,,33,0*4C
$GNGLL,1346.88319,N,10040.46074,E,133520.00,A,D*7B
$GNGST,133520.00,1674,,,,3.3,2.6,10*60
$GNZDA,133520.00,19,11,2018,00,00*7D
$GNRMC,133521.00,A,1346.88313,N,10040.46071,E,0.042,,191118,,,D,V*11
$GNVTG,,T,,M,0.042,N,0.077,K,D*3E
$GNGNS,133521.00,1346.88313,N,10040.46071,E,DNNA,12,0.82,2.4,-27.4,,0000,V*33
$GNGGA,133521.00,1346.88313,N,10040.46071,E,2,12,0.82,2.4,M,-27.4,M,,0000*65
$GNGSA,A,3,03,41,23,31,16,26,22,40,27,08,,,1.83,0.82,1.64,1*0D
$GNGSA,A,3,13,05,,,,,,,,,,,1.83,0.82,1.64,4*00
$GPGSV,4,1,15,03,35,250,29,08,43,181,31,09,12,324,,11,06,199,21,0*63
$GPGSV,4,2,15,14,27,133,18,16,50,004,19,18,08,187,,22,33,224,27,0*6F
$GPGSV,4,3,15,23,38,326,20,26,28,027,30,27,62,134,28,31,19,070,27,0*64
$GPGSV,4,4,15,32,07,140,,40,36,257,32,41,64,233,31,0*55
$GBGSV,2,1,07,05,39,253,37,09,88,234,21,10,54,326,,13,16,175,26,0*76
$GBGSV,2,2,07,16,66,156,,22,,,39,30,,,33,0*4C
$GNGLL,1346.88313,N,10040.46071,E,133521.00,A,D*75
$GNGST,133521.00,1674,,,,3.3,2.6,10*61
$GNZDA,133521.00,19,11,2018,00,00*7C
$GNRMC,133522.00,A,1346.88310,N,10040.46064,E,0.090,,191118,,,D,V*1A
$GNVTG,,T,,M,0.090,N,0.166,K,D*30
$GNGNS,133522.00,1346.88310,N,10040.46064,E,DNNA,12,0.82,2.4,-27.4,,0000,V*37
$GNGGA,133522.00,1346.88310,N,10040.46064,E,2,12,0.82,2.4,M,-27.4,M,,0000*61
$GNGSA,A,3,03,41,23,31,16,26,22,40,27,08,,,1.83,0.82,1.64,1*0D
$GNGSA,A,3,13,05,,,,,,,,,,,1.83,0.82,1.64,4*00
$GPGSV,4,1,15,03,35,250,30,08,43,181,30,09,12,324,,11,06,199,21,0*6A
$GPGSV,4,2,15,14,27,133,18,16,50,004,19,18,08,187,,22,33,224,27,0*6F
$GPGSV,4,3,15,23,38,326,20,26,28,027,30,27,62,134,27,31,19,070,28,0*64
$GPGSV,4,4,15,32,07,140,,40,36,257,31,41,64,233,31,0*56
$GBGSV,2,1,07,05,39,253,37,09,88,234,21,10,54,326,,13,16,175,26,0*76
$GBGSV,2,2,07,16,66,156,,22,,,39,30,,,33,0*4C
$GNGLL,1346.88310,N,10040.46064,E,133522.00,A,D*71
$GNGST,133522.00,1674,,,,3.3,2.6,10*62
$GNZDA,133522.00,19,11,2018,00,00*7F
$GNRMC,133523.00,A,1346.88310,N,10040.46058,E,0.104,,191118,,,D,V*18
$GNVTG,,T,,M,0.104,N,0.193,K,D*36
$GNGNS,133523.00,1346.88310,N,10040.46058,E,DNNA,12,0.82,2.4,-27.4,,0000,V*39
$GNGGA,133523.00,1346.88310,N,10040.46058,E,2,12,0.82,2.4,M,-27.4,M,,0000*6F
$GNGSA,A,3,03,41,23,31,16,26,22,40,27,08,,,1.83,0.82,1.64,1*0D
$GNGSA,A,3,13,05,,,,,,,,,,,1.83,0.82,1.64,4*00
$GPGSV,4,1,15,03,35,250,31,08,43,181,30,09,12,324,,11,06,199,22,0*68
$GPGSV,4,2,15,14,27,133,18,16,50,004,18,18,08,187,,22,33,224,28,0*61
$GPGSV,4,3,15,23,38,326,20,26,28,027,30,27,62,134,27,31,19,070,27,0*6B
$GPGSV,4,4,15,32,07,140,,40,36,257,32,41,64,233,31,0*55
$GBGSV,2,1,07,05,39,253,37,09,88,234,22,10,54,326,,13,16,175,25,0*76
$GBGSV,2,2,07,16,66,156,,22,,,40,30,,,33,0*42
$GNGLL,1346.88310,N,10040.46058,E,133523.00,A,D*7F
$GNGST,133523.00,1674,,,,3.3,2.6,10*63
$GNZDA,133523.00,19,11,2018,00,00*7E
$GNRMC,133524.00,A,1346.88307,N,10040.46056,E,0.013,,191118,,,D,V*10
$GNVTG,,T,,M,0.013,N,0.024,K,D*3C
$GNGNS,133524.00,1346.88307,N,10040.46056,E,DNNA,12,0.82,2.6,-27.4,,0000,V*34
$GNGGA,133524.00,1346.88307,N,10040.46056,E,2,12,0.82,2.6,M,-27.4,M,,0000*62
$GNGSA,A,3,03,41,23,31,16,26,22,40,27,08,,,1.83,0.82,1.64,1*0D
$GNGSA,A,3,13,05,,,,,,,,,,,1.83,0.82,1.64,4*00
$GPGSV,4,1,15,03,35,250,31,08,43,181,30,09,12,324,,11,06,199,22,0*68
$GPGSV,4,2,15,14,27,133,18,16,50,004,19,18,08,187,,22,33,224,28,0*60
$GPGSV,4,3,15,23,38,326,20,26,28,028,30,27,62,134,27,31,19,070,28,0*6B
$GPGSV,4,4,15,32,07,140,,40,36,257,32,41,64,233,31,0*55
$GBGSV,2,1,07,05,39,253,37,09,88,234,22,10,54,326,,13,16,175,26,0*75
$GBGSV,2,2,07,16,66,156,,22,,,40,30,,,33,0*42
$GNGLL,1346.88307,N,10040.46056,E,133524.00,A,D*70
$GNGST,133524.00,1674,,,,3.3,2.6,10*64
$GNZDA,133524.00,19,11,2018,00,00*79
$GNRMC,133525.00,A,1346.88300,N,10040.46054,E,0.022,,191118,,,D,V*16
$GNVTG,,T,,M,0.022,N,0.041,K,D*3D
$GNGNS,133525.00,1346.88300,N,10040.46054,E,DNNA,12,0.82,2.8,-27.4,,0000,V*3E
$GNGGA,133525.00,1346.88300,N,10040.46054,E,2,12,0.82,2.8,M,-27.4,M,,0000*68
$GNGSA,A,3,03,41,23,31,16,26,22,40,27,08,,,1.83,0.82,1.64,1*0D
$GNGSA,A,3,13,05,,,,,,,,,,,1.83,0.82,1.64,4*00
$GPGSV,4,1,15,03,35,250,32,08,43,181,30,09,12,324,,11,06,199,23,0*6A
$GPGSV,4,2,15,14,27,133,18,16,50,004,18,18,08,187,,22,33,224,29,0*60
$GPGSV,4,3,15,23,38,326,18,26,28,028,30,27,62,133,26,31,19,070,28,0*66
$GPGSV,4,4,15,32,07,140,,40,36,257,32,41,64,233,31,0*55
$GBGSV,2,1,07,05,39,253,37,09,88,234,22,10,54,326,,13,16,175,25,0*76
$GBGSV,2,2,07,16,66,156,,22,,,40,30,,,33,0*42
$GNGLL,1346.88300,N,10040.46054,E,133525.00,A,D*74
$GNGST,133525.00,1674,,,,3.3,2.6,10*65
$GNZDA,133525.00,19,11,2018,00,00*78
$GNRMC,133526.00,A,1346.88297,N,10040.46051,E,0.085,,191118,,,D,V*12
$GNVTG,,T,,M,0.085,N,0.157,K,D*36
$GNGNS,133526.00,1346.88297,N,10040.46051,E,DNNA,12,0.82,2.9,-27.4,,0000,V*36
$GNGGA,133526.00,1346.88297,N,10040.46051,E,2,12,0.82,2.9,M,-27.4,M,,0000*60
$GNGSA,A,3,03,41,23,31,16,26,22,40,27,08,,,1.83,0.82,1.64,1*0D
$GNGSA,A,3,13,05,,,,,,,,,,,1.83,0.82,1.64,4*00
$GPGSV,4,1,15,03,35,250,31,08,43,181,30,09,12,324,,11,06,199,23,0*69
$GPGSV,4,2,15,14,27,133,18,16,50,004,18,18,08,187,,22,33,224,30,0*68
$GPGSV,4,3,15,23,38,326,16,26,28,028,30,27,62,133,26,31,19,070,28,0*68
$GPGSV,4,4,15,32,07,140,,40,36,257,32,41,64,233,31,0*55
$GBGSV,2,1,07,05,39,253,37,09,88,234,23,10,54,326,,13,16,175,25,0*77
$GBGSV,2,2,07,16,66,156,,22,,,40,30,,,33,0*42
$GNGLL,1346.88297,N,10040.46051,E,133526.00,A,D*7D
$GNGST,133526.00,1674,,,,3.3,2.6,10*66
$GNZDA,133526.00,19,11,2018,00,00*7B
$GNRMC,133527.00,A,1346.88295,N,10040.46048,E,0.038,,191118,,,D,V*1F
$GNVTG,,T,,M,0.038,N,0.070,K,D*34
$GNGNS,133527.00,1346.88295,N,10040.46048,E,DNNA,12,0.82,3.1,-27.4,,0000,V*34
$GNGGA,133527.00,1346.88295,N,10040.46048,E,2,12,0.82,3.1,M,-27.4,M,,0000*62
$GNGSA,A,3,03,41,23,31,16,26,22,40,27,08,,,1.83,0.82,1.64,1*0D
$GNGSA,A,3,13,05,,,,,,,,,,,1.83,0.82,1.64,4*00
$GPGSV,4,1,15,03,35,250,31,08,43,181,30,09,12,324,,11,06,199,23,0*69
$GPGSV,4,2,15,14,27,133,18,16,50,004,18,18,08,187,,22,33,224,29,0*60
$GPGSV,4,3,15,23,38,326,16,26,28,028,31,27,62,133,26,31,19,070,28,0*69
$GPGSV,4,4,15,32,07,140,,40,36,257,32,41,64,233,31,0*55
$GBGSV,2,1,07,05,39,253,37,09,88,234,22,10,54,326,,13,16,175,25,0*76
$GBGSV,2,2,07,16,66,156,,22,,,40,30,,,32,0*43
$GNGLL,1346.88295,N,10040.46048,E,133527.00,A,D*76
$GNGST,133527.00,1674,,,,3.3,2.7,10*66
$GNZDA,133527.00,19,11,2018,00,00*7A
$GNRMC,133528.00,A,1346.88289,N,10040.46048,E,0.020,,191118,,,D,V*14
$GNVTG,,T,,M,0.020,N,0.037,K,D*3E
$GNGNS,133528.00,1346.88289,N,10040.46048,E,DNNA,12,0.82,3.5,-27.4,,0000,V*32
$GNGGA,133528.00,1346.88289,N,10040.46048,E,2,12,0.82,3.5,M,-27.4,M,,0000*64
$GNGSA,A,3,03,41,23,31,16,26,22,40,27,08,,,1.83,0.82,1.64,1*0D
$GNGSA,A,3,13,05,,,,,,,,,,,1.83,0.82,1.64,4*00
$GPGSV,4,1,15,03,35,250,31,08,43,181,30,09,12,324,,11,06,199,23,0*69
$GPGSV,4,2,15,14,27,133,18,16,50,004,19,18,08,187,,22,33,224,29,0*61
$GPGSV,4,3,15,23,38,326,16,26,28,028,31,27,62,133,25,31,19,070,28,0*6A
$GPGSV,4,4,15,32,07,140,,40,36,257,32,41,64,233,31,0*55
$GBGSV,2,1,07,05,39,253,37,09,88,234,23,10,54,326,,13,16,175,25,0*77
$GBGSV,2,2,07,16,66,156,,22,,,40,30,,,33,0*42
$GNGLL,1346.88289,N,10040.46048,E,133528.00,A,D*74
$GNGST,133528.00,1674,,,,3.3,2.7,10*69
$GNZDA,133528.00,19,11,2018,00,00*75
$GNRMC,133529.00,A,1346.88286,N,10040.46046,E,0.027,,191118,,,D,V*13
$GNVTG,,T,,M,0.027,N,0.050,K,D*38
$GNGNS,133529.00,1346.88286,N,10040.46046,E,DNNA,12,0.82,3.5,-27.4,,0000,V*32
$GNGGA,133529.00,1346.88286,N,10040.46046,E,2,12,0.82,3.5,M,-27.4,M,,0000*64
$GNGSA,A,3,03,41,23,31,16,26,22,40,27,08,,,1.83,0.82,1.64,1*0D
$GNGSA,A,3,13,05,,,,,,,,,,,1.83,0.82,1.64,4*00
$GPGSV,4,1,15,03,35,250,31,08,43,181,30,09,12,324,,11,06,199,23,0*69
$GPGSV,4,2,15,14,27,133,18,16,50,004,20,18,08,187,,22,33,224,29,0*6B
$GPGSV,4,3,15,23,38,326,16,26,28,028,31,27,62,133,25,31,19,071,27,0*64
$GPGSV,4,4,15,32,07,140,,40,36,257,32,41,64,233,31,0*55
$GBGSV,2,1,07,05,39,253,37,09,88,234,23,10,54,326,,13,16,175,25,0*77
$GBGSV,2,2,07,16,66,156,,22,,,40,30,,,32,0*43
$GNGLL,1346.88286,N,10040.46046,E,133529.00,A,D*74
$GNGST,133529.00,1674,,,,3.3,2.7,10*68
$GNZDA,133529.00,19,11,2018,00,00*74
V*1A
$GNVTG,,T,,M,0.034,N,0.063,K,D*3A
$GNGNS,133530.00,1346.88286,N,10040.46045,E,DNNA,12,0.82,3.6,-27.4,,0000,V*3A
$GNGGA,133530.00,1346.88286,N,10040.46045,E,2,12,0.82,3.6,M,-27.4,M,,0000*6C
$GNGSA,A,3,03,41,23,31,16,26,22,40,27,08,,,1.83,0.82,1.64,1*0D
$GNGSA,A,3,13,05,,,,,,,,,,,1.83,0.82,1.64,4*00
$GPGSV,4,1,15,03,35,250,31,08,43,181,30,09,12,324,,11,06,199,23,0*69
$GPGSV,4,2,15,14,27,133,19,16,50,004,19,18,08,187,,22,33,224,29,0*60
$GPGSV,4,3,15,23,38,326,15,26,28,028,30,27,62,133,25,31,19,071,27,0*66
$GPGSV,4,4,15,32,07,140,,40,36,257,32,41,64,233,31,0*55
$GBGSV,2,1,07,05,39,253,37,09,88,234,22,10,54,326,,13,16,175,26,0*75
$GBGSV,2,2,07,16,66,156,,22,,,40,30,,,32,0*43
$GNGLL,1346.88286,N,10040.46045,E,133530.00,A,D*7F
$GNGST,133530.00,1674,,,,3.3,2.7,10*60
$GNZDA,133530.00,19,11,2018,00,00*7C
$GNRMC,133531.00,A,1346.88284,N,10040.46047,E,0.059,,191118,,,D,V*10
$GNVTG,,T,,M,0.059,N,0.110,K,D*34
$GNGNS,133531.00,1346.88284,N,10040.46047,E,DNNA,12,0.82,3.9,-27.4,,0000,V*34
$GNGGA,133531.00,1346.88284,N,10040.46047,E,2,12,0.82,3.9,M,-27.4,M,,0000*62
$GNGSA,A,3,03,41,23,31,16,26,22,40,27,08,,,1.83,0.82,1.64,1*0D
$GNGSA,A,3,13,05,,,,,,,,,,,1.83,0.82,1.64,4*00
$GPGSV,4,1,15,03,35,250,31,08,43,181,30,09,12,324,,11,06,199,23,0*69
$GPGSV,4,2,15,14,27,133,18,16,50,004,19,18,08,187,,22,33,224,29,0*61
$GPGSV,4,3,15,23,38,326,15,26,28,028,31,27,62,133,25,31,19,071,27,0*67
$GPGSV,4,4,15,32,07,140,,40,36,257,32,41,64,233,31,0*55
$GBGSV,2,1,07,05,39,253,37,09,88,234,22,10,54,326,,13,16,175,26,0*75
$GBGSV,2,2,07,16,66,156,,22,,,40,30,,,32,0*43
$GNGLL,1346.88284,N,10040.46047,E,133531.00,A,D*7E
$GNGST,133531.00,1674,,,,3.3,2.7,11*60
$GNZDA,133531.00,19,11,2018,00,00*7D
$GNRMC,133532.00,A,1346.88282,N,10040.46050,E,0.059,,191118,,,D,V*13
$GNVTG,,T,,M,0.059,N,0.109,K,D*3C
$GNGNS,133532.00,1346.88282,N,10040.46050,E,DNNA,12,0.85,4.2,-27.4,,0000,V*3C
$GNGGA,133532.00,1346.88282,N,10040.46050,E,2,12,0.85,4.2,M,-27.4,M,,0000*6A
$GNGSA,A,3,03,41,23,31,16,26,22,40,27,08,,,1.91,0.85,1.71,1*0D
$GNGSA,A,3,13,05,,,,,,,,,,,1.91,0.85,1.71,4*00
$GPGSV,4,1,15,03,35,250,31,08,43,181,30,09,12,324,,11,06,199,23,0*69
$GPGSV,4,2,15,14,27,133,19,16,50,004,19,18,08,187,,22,33,224,28,0*61
$GPGSV,4,3,15,23,38,326,14,26,28,028,31,27,62,133,24,31,19,071,27,0*67
$GPGSV,4,4,15,32,07,140,,40,36,257,32,41,64,233,31,0*55
$GBGSV,2,1,07,05,39,253,37,09,88,234,22,10,54,326,,13,16,175,25,0*76
$GBGSV,2,2,07,16,66,156,,22,,,40,30,,,32,0*43
$GNGLL,1346.88282,N,10040.46050,E,133532.00,A,D*7D
$GNGST,133532.00,1748,,,,3.3,2.7,11*6D
$GNZDA,133532.00,19,11,2018,00,00*7E
$GNRMC,133533.00,A,1346.88282,N,10040.46051,E,0.043,,191118,,,D,V*18
$GNVTG,,T,,M,0.043,N,0.079,K,D*31
$GNGNS,133533.00,1346.88282,N,10040.46051,E,DNNA,12,0.85,4.4,-27.4,,0000,V*3A
$GNGGA,133533.00,1346.88282,N,10040.46051,E,2,12,0.85,4.4,M,-27.4,M,,0000*6C
$GNGSA,A,3,03,41,23,31,16,26,22,40,27,08,,,1.91,0.85,1.71,1*0D
$GNGSA,A,3,13,05,,,,,,,,,,,1.91,0.85,1.71,4*00
$GPGSV,4,1,15,03,35,250,31,08,43,181,30,09,12,324,,11,06,199,23,0*69
$GPGSV,4,2,15,14,27,133,19,16,50,004,19,18,08,187,,22,33,224,29,0*60
$GPGSV,4,3,15,23,38,326,13,26,28,028,31,27,62,133,23,31,19,071,27,0*67
$GPGSV,4,4,15,32,07,140,,40,36,257,32,41,64,233,31,0*55
$GBGSV,2,1,07,05,39,253,37,09,88,234,22,10,54,326,,13,16,175,26,0*75
$GBGSV,2,2,07,16,66,156,,22,,,40,30,,,33,0*42
$GNGLL,1346.88282,N,10040.46051,E,133533.00,A,D*7D
$GNGST,133533.00,1748,,,,3.3,2.7,11*6C
$GNZDA,133533.00,19,11,2018,00,00*7F
$GNRMC,133534.00,A,1346.88281,N,10040.46052,E,0.059,,191118,,,D,V*14
$GNVTG,,T,,M,0.059,N,0.110,K,D*34
$GNGNS,133534.00,1346.88281,N,10040.46052,E,DNNA,12,0.85,4.5,-27.4,,0000,V*3C
$GNGGA,133534.00,1346.88281,N,10040.46052,E,2,12,0.85,4.5,M,-27.4,M,,0000*6A
$GNGSA,A,3,03,41,23,31,16,26,22,40,27,08,,,1.91,0.85,1.71,1*0D
$GNGSA,A,3,13,05,,,,,,,,,,,1.91,0.85,1.71,4*00
$GPGSV,4,1,15,03,35,250,31,08,43,181,30,09,12,324,,11,06,199,23,0*69
$GPGSV,4,2,15,14,27,133,20,16,50,004,18,18,08,187,,22,33,224,29,0*6B
$GPGSV,4,3,15,23,38,326,14,26,28,028,31,27,62,133,23,31,19,071,26,0*61
$GPGSV,4,4,15,32,07,140,,40,36,257,32,41,64,233,31,0*55
$GBGSV,2,1,07,05,39,253,37,09,88,234,22,10,54,326,,13,16,175,26,0*75
$GBGSV,2,2,07,16,66,156,,22,,,40,30,,,32,0*43
$GNGLL,1346.88281,N,10040.46052,E,133534.00,A,D*7A
$GNGST,133534.00,1748,,,,3.3,2.7,11*6B
$GNZDA,133534.00,19,11,2018,00,00*78
$GNRMC,133535.00,A,1346.88278,N,10040.46053,E,0.046,,191118,,,D,V*1C
$GNVTG,,T,,M,0.046,N,0.085,K,D*37
$GNGNS,133535.00,1346.88278,N,10040.46053,E,DNNA,12,0.85,4.8,-27.4,,0000,V*37
$GNGGA,133535.00,1346.88278,N,10040.46053,E,2,12,0.85,4.8,M,-27.4,M,,0000*61
$GNGSA,A,3,03,41,23,31,16,26,22,40,27,08,,,1.91,0.85,1.71,1*0D
$GNGSA,A,3,13,05,,,,,,,,,,,1.91,0.85,1.71,4*00
$GPGSV,4,1,15,03,35,250,31,08,43,181,31,09,12,324,,11,06,199,23,0*68
$GPGSV,4,2,15,14,27,133,19,16,50,004,18,18,08,187,,22,33,224,28,0*60
$GPGSV,4,3,15,23,38,326,14,26,28,028,31,27,62,133,23,31,19,071,25,0*62
$GPGSV,4,4,15,32,07,140,,40,36,257,32,41,64,233,31,0*55
$GBGSV,2,1,07,05,39,253,37,09,88,234,22,10,54,326,,13,16,175,26,0*75
$GBGSV,2,2,07,16,66,156,,22,,,40,30,,,32,0*43
$GNGLL,1346.88278,N,10040.46053,E,133535.00,A,D*7C
$GNGST,133535.00,1748,,,,3.3,2.8,11*65
$GNZDA,133535.00,19,11,2018,00,00*79
$GNRMC,133536.00,A,1346.88277,N,10040.46055,E,0.051,,191118,,,D,V*10
$GNVTG,,T,,M,0.051,N,0.094,K,D*31
$GNGNS,133536.00,1346.88277,N,10040.46055,E,DNNA,12,0.82,4.9,-27.4,,0000,V*3B
